{"type":"FeatureCollection","features":[{"type":"Feature","geometry":{"type":"Point","coordinates":[9.43852835486,54.7849933768]},"properties":{"name":"Flensburg","cca_2":"01001"}},{"type":"Feature","geometry":{"type":"Point","coordinates":[10.1322443646,54.3248406926]},"properties":{"name":"Kiel","cca_2":"01002"}},{"type":"Feature","geometry":{"type":"Point","coordinates":[10.7272831058,53.8723167338]},"properties":{"name":"Lübeck","cca_2":"01003"}},{"type":"Feature","geometry":{"type":"Point","coordinates":[9.98448195474,54.0811244365]},"properties":{"name":"Neumünster","cca_2":"01004"}},{"type":"Feature","geometry":{"type":"Point","coordinates":[9.10781447873,54.1329109614]},"properties":{"name":"Dithmarschen","cca_2":"01051"}},{"type":"Feature","geometry":{"type":"Point","coordinates":[10.6018592215,53.5890024203]},"properties":{"name":"Herzogtum Lauenburg","cca_2":"01053"}},{"type":"Feature","geometry":{"type":"Point","coordinates":[8.88688779292,54.6095639996]},"properties":{"name":"Nordfriesland","cca_2":"01054"}},{"type":"Feature","geometry":{"type":"Point","coordinates":[10.819427020500001,54.1896490274]},"properties":{"name":"Ostholstein","cca_2":"01055"}},{"type":"Feature","geometry":{"type":"Point","coordinates":[9.73686669973,53.7180840651]},"properties":{"name":"Pinneberg","cca_2":"01056"}},{"type":"Feature","geometry":{"type":"Point","coordinates":[10.3636951573,54.2433885939]},"properties":{"name":"Plön","cca_2":"01057"}},{"type":"Feature","geometry":{"type":"Point","coordinates":[9.78174206802,54.2896157359]},"properties":{"name":"Rendsburg-Eckernförde","cca_2":"01058"}},{"type":"Feature","geometry":{"type":"Point","coordinates":[9.48870921465,54.6190195643]},"properties":{"name":"Schleswig-Flensburg","cca_2":"01059"}},{"type":"Feature","geometry":{"type":"Point","coordinates":[10.1409147199,53.9199857446]},"properties":{"name":"Segeberg","cca_2":"01060"}},{"type":"Feature","geometry":{"type":"Point","coordinates":[9.51938189615,53.9289451889]},"properties":{"name":"Steinburg","cca_2":"01061"}},{"type":"Feature","geometry":{"type":"Point","coordinates":[10.3316398811,53.7208005726]},"properties":{"name":"Stormarn","cca_2":"01062"}},{"type":"Feature","geometry":{"type":"Point","coordinates":[10.0207944156,53.5463773461]},"properties":{"name":"Hamburg","cca_2":"02000"}},{"type":"Feature","geometry":{"type":"Point","coordinates":[10.5241080552,52.275221093]},"properties":{"name":"Braunschweig","cca_2":"03101"}},{"type":"Feature","geometry":{"type":"Point","coordinates":[10.3707262339,52.124474442]},"properties":{"name":"Salzgitter","cca_2":"03102"}},{"type":"Feature","geometry":{"type":"Point","coordinates":[10.7848707661,52.4107473932]},"properties":{"name":"Wolfsburg","cca_2":"03103"}},{"type":"Feature","geometry":{"type":"Point","coordinates":[10.6041704601,52.5802562309]},"properties":{"name":"Gifhorn","cca_2":"03151"}},{"type":"Feature","geometry":{"type":"Point","coordinates":[10.400392667,51.8746771574]},"properties":{"name":"Goslar","cca_2":"03153"}},{"type":"Feature","geometry":{"type":"Point","coordinates":[10.8888387183,52.2607443342]},"properties":{"name":"Helmstedt","cca_2":"03154"}},{"type":"Feature","geometry":{"type":"Point","coordinates":[9.84800893097,51.7425873324]},"properties":{"name":"Northeim","cca_2":"03155"}},{"type":"Feature","geometry":{"type":"Point","coordinates":[10.2552878088,52.3041913284]},"properties":{"name":"Peine","cca_2":"03157"}},{"type":"Feature","geometry":{"type":"Point","coordinates":[10.583953795,52.1269975166]},"properties":{"name":"Wolfenbüttel","cca_2":"03158"}},{"type":"Feature","geometry":{"type":"Point","coordinates":[10.009534963171626,51.510387098234595]},"properties":{"name":"Göttingen","cca_2":"03159"}},{"type":"Feature","geometry":{"type":"Point","coordinates":[9.71979904802,52.4219370696]},"properties":{"name":"Region Hannover","cca_2":"03241"}},{"type":"Feature","geometry":{"type":"Point","coordinates":[8.70179913631,52.7284857794]},"properties":{"name":"Diepholz","cca_2":"03251"}},{"type":"Feature","geometry":{"type":"Point","coordinates":[9.38989545155,52.0951381895]},"properties":{"name":"Hameln-Pyrmont","cca_2":"03252"}},{"type":"Feature","geometry":{"type":"Point","coordinates":[9.94348097201,52.0902189983]},"properties":{"name":"Hildesheim","cca_2":"03254"}},{"type":"Feature","geometry":{"type":"Point","coordinates":[9.55140269027,51.8806325752]},"properties":{"name":"Holzminden","cca_2":"03255"}},{"type":"Feature","geometry":{"type":"Point","coordinates":[9.1143129274,52.6092228116]},"properties":{"name":"Nienburg (Weser)","cca_2":"03256"}},{"type":"Feature","geometry":{"type":"Point","coordinates":[9.20656190484,52.2927923256]},"properties":{"name":"Schaumburg","cca_2":"03257"}},{"type":"Feature","geometry":{"type":"Point","coordinates":[10.1035661643,52.7133432321]},"properties":{"name":"Celle","cca_2":"03351"}},{"type":"Feature","geometry":{"type":"Point","coordinates":[8.81238237187,53.6165865049]},"properties":{"name":"Cuxhaven","cca_2":"03352"}},{"type":"Feature","geometry":{"type":"Point","coordinates":[9.96273884793,53.3157734164]},"properties":{"name":"Harburg","cca_2":"03353"}},{"type":"Feature","geometry":{"type":"Point","coordinates":[11.1229198942,53.0198717176]},"properties":{"name":"Lüchow-Dannenberg","cca_2":"03354"}},{"type":"Feature","geometry":{"type":"Point","coordinates":[10.5732569229,53.232575345]},"properties":{"name":"Lüneburg","cca_2":"03355"}},{"type":"Feature","geometry":{"type":"Point","coordinates":[8.80808093198,53.2510067251]},"properties":{"name":"Osterholz","cca_2":"03356"}},{"type":"Feature","geometry":{"type":"Point","coordinates":[9.30658483814,53.2507583937]},"properties":{"name":"Rotenburg (Wümme)","cca_2":"03357"}},{"type":"Feature","geometry":{"type":"Point","coordinates":[9.76941135878,52.9283300914]},"properties":{"name":"Heidekreis","cca_2":"03358"}},{"type":"Feature","geometry":{"type":"Point","coordinates":[9.41807038986,53.578976226]},"properties":{"name":"Stade","cca_2":"03359"}},{"type":"Feature","geometry":{"type":"Point","coordinates":[10.5475810531,52.9836349419]},"properties":{"name":"Uelzen","cca_2":"03360"}},{"type":"Feature","geometry":{"type":"Point","coordinates":[9.17546449952,52.973235647]},"properties":{"name":"Verden","cca_2":"03361"}},{"type":"Feature","geometry":{"type":"Point","coordinates":[8.64568293102,53.0494043992]},"properties":{"name":"Delmenhorst","cca_2":"03401"}},{"type":"Feature","geometry":{"type":"Point","coordinates":[7.18158411476,53.3606790665]},"properties":{"name":"Emden","cca_2":"03402"}},{"type":"Feature","geometry":{"type":"Point","coordinates":[8.22435903936,53.1445781697]},"properties":{"name":"Oldenburg (Oldb)","cca_2":"03403"}},{"type":"Feature","geometry":{"type":"Point","coordinates":[8.04703290985,52.2776798178]},"properties":{"name":"Osnabrück","cca_2":"03404"}},{"type":"Feature","geometry":{"type":"Point","coordinates":[8.08620462896,53.5659448147]},"properties":{"name":"Wilhelmshaven","cca_2":"03405"}},{"type":"Feature","geometry":{"type":"Point","coordinates":[8.01326226621,53.2184881736]},"properties":{"name":"Ammerland","cca_2":"03451"}},{"type":"Feature","geometry":{"type":"Point","coordinates":[7.36808958075,53.4964307678]},"properties":{"name":"Aurich","cca_2":"03452"}},{"type":"Feature","geometry":{"type":"Point","coordinates":[7.90471393786,52.9110290194]},"properties":{"name":"Cloppenburg","cca_2":"03453"}},{"type":"Feature","geometry":{"type":"Point","coordinates":[7.40268865164,52.7382970162]},"properties":{"name":"Emsland","cca_2":"03454"}},{"type":"Feature","geometry":{"type":"Point","coordinates":[7.98324746163,53.510362974]},"properties":{"name":"Friesland","cca_2":"03455"}},{"type":"Feature","geometry":{"type":"Point","coordinates":[7.01985676166,52.4760534093]},"properties":{"name":"Grafschaft Bentheim","cca_2":"03456"}},{"type":"Feature","geometry":{"type":"Point","coordinates":[7.46976164078,53.2435417357]},"properties":{"name":"Leer","cca_2":"03457"}},{"type":"Feature","geometry":{"type":"Point","coordinates":[8.38939656642,52.9880769073]},"properties":{"name":"Oldenburg","cca_2":"03458"}},{"type":"Feature","geometry":{"type":"Point","coordinates":[8.04515734225,52.3816139244]},"properties":{"name":"Osnabrück","cca_2":"03459"}},{"type":"Feature","geometry":{"type":"Point","coordinates":[8.22305794318,52.6602901512]},"properties":{"name":"Vechta","cca_2":"03460"}},{"type":"Feature","geometry":{"type":"Point","coordinates":[8.38864623114,53.357641762]},"properties":{"name":"Wesermarsch","cca_2":"03461"}},{"type":"Feature","geometry":{"type":"Point","coordinates":[7.7061235505,53.5734137385]},"properties":{"name":"Wittmund","cca_2":"03462"}},{"type":"Feature","geometry":{"type":"Point","coordinates":[8.78049374679,53.1195434664]},"properties":{"name":"Bremen","cca_2":"04011"}},{"type":"Feature","geometry":{"type":"Point","coordinates":[8.58850522385,53.5381662933]},"properties":{"name":"Bremerhaven","cca_2":"04012"}},{"type":"Feature","geometry":{"type":"Point","coordinates":[6.81020262394,51.235456959]},"properties":{"name":"Düsseldorf","cca_2":"05111"}},{"type":"Feature","geometry":{"type":"Point","coordinates":[6.73469184999,51.439615769]},"properties":{"name":"Duisburg","cca_2":"05112"}},{"type":"Feature","geometry":{"type":"Point","coordinates":[7.01715391614,51.433832766]},"properties":{"name":"Essen","cca_2":"05113"}},{"type":"Feature","geometry":{"type":"Point","coordinates":[6.5796680064699995,51.3452191428]},"properties":{"name":"Krefeld","cca_2":"05114"}},{"type":"Feature","geometry":{"type":"Point","coordinates":[6.41197447381,51.1671935981]},"properties":{"name":"Mönchengladbach","cca_2":"05116"}},{"type":"Feature","geometry":{"type":"Point","coordinates":[6.878461621,51.4137814936]},"properties":{"name":"Mülheim an der Ruhr","cca_2":"05117"}},{"type":"Feature","geometry":{"type":"Point","coordinates":[6.84712049817,51.5131313527]},"properties":{"name":"Oberhausen","cca_2":"05119"}},{"type":"Feature","geometry":{"type":"Point","coordinates":[7.22411565185,51.1826933037]},"properties":{"name":"Remscheid","cca_2":"05120"}},{"type":"Feature","geometry":{"type":"Point","coordinates":[7.06606973298,51.1624551579]},"properties":{"name":"Solingen","cca_2":"05122"}},{"type":"Feature","geometry":{"type":"Point","coordinates":[7.16893008228,51.2506036112]},"properties":{"name":"Wuppertal","cca_2":"05124"}},{"type":"Feature","geometry":{"type":"Point","coordinates":[6.25880908496,51.6523631313]},"properties":{"name":"Kleve","cca_2":"05154"}},{"type":"Feature","geometry":{"type":"Point","coordinates":[6.96906518309,51.2571043543]},"properties":{"name":"Mettmann","cca_2":"05158"}},{"type":"Feature","geometry":{"type":"Point","coordinates":[6.64932316692,51.1435712356]},"properties":{"name":"Rhein-Kreis Neuss","cca_2":"05162"}},{"type":"Feature","geometry":{"type":"Point","coordinates":[6.32612051327,51.2828202383]},"properties":{"name":"Viersen","cca_2":"05166"}},{"type":"Feature","geometry":{"type":"Point","coordinates":[6.61836262868,51.6270425398]},"properties":{"name":"Wesel","cca_2":"05170"}},{"type":"Feature","geometry":{"type":"Point","coordinates":[7.10983940994,50.7057346173]},"properties":{"name":"Bonn","cca_2":"05314"}},{"type":"Feature","geometry":{"type":"Point","coordinates":[6.97321855167,50.9456668791]},"properties":{"name":"Köln","cca_2":"05315"}},{"type":"Feature","geometry":{"type":"Point","coordinates":[7.01547411084,51.0530662603]},"properties":{"name":"Leverkusen","cca_2":"05316"}},{"type":"Feature","geometry":{"type":"Point","coordinates":[6.21672721805,50.7275046127]},"properties":{"name":"Städteregion Aachen","cca_2":"05334"}},{"type":"Feature","geometry":{"type":"Point","coordinates":[6.44556160998,50.8178950546]},"properties":{"name":"Düren","cca_2":"05358"}},{"type":"Feature","geometry":{"type":"Point","coordinates":[6.71649101914,50.9049330282]},"properties":{"name":"Rhein-Erft-Kreis","cca_2":"05362"}},{"type":"Feature","geometry":{"type":"Point","coordinates":[6.6441519123,50.5364731669]},"properties":{"name":"Euskirchen","cca_2":"05366"}},{"type":"Feature","geometry":{"type":"Point","coordinates":[6.16411292416,51.0493489074]},"properties":{"name":"Heinsberg","cca_2":"05370"}},{"type":"Feature","geometry":{"type":"Point","coordinates":[7.51662881723,51.0127091971]},"properties":{"name":"Oberbergischer Kreis","cca_2":"05374"}},{"type":"Feature","geometry":{"type":"Point","coordinates":[7.19484653806,51.0230044262]},"properties":{"name":"Rheinisch-Bergischer Kreis","cca_2":"05378"}},{"type":"Feature","geometry":{"type":"Point","coordinates":[7.23457302819,50.7606389137]},"properties":{"name":"Rhein-Sieg-Kreis","cca_2":"05382"}},{"type":"Feature","geometry":{"type":"Point","coordinates":[6.9201161778,51.5716938262]},"properties":{"name":"Bottrop","cca_2":"05512"}},{"type":"Feature","geometry":{"type":"Point","coordinates":[7.07124023772,51.5539564213]},"properties":{"name":"Gelsenkirchen","cca_2":"05513"}},{"type":"Feature","geometry":{"type":"Point","coordinates":[7.62364679497,51.954316786]},"properties":{"name":"Münster","cca_2":"05515"}},{"type":"Feature","geometry":{"type":"Point","coordinates":[6.89961561244,51.9613198354]},"properties":{"name":"Borken","cca_2":"05554"}},{"type":"Feature","geometry":{"type":"Point","coordinates":[7.36601223345,51.8668510417]},"properties":{"name":"Coesfeld","cca_2":"05558"}},{"type":"Feature","geometry":{"type":"Point","coordinates":[7.15924893893,51.6724839158]},"properties":{"name":"Recklinghausen","cca_2":"05562"}},{"type":"Feature","geometry":{"type":"Point","coordinates":[7.57944671253,52.2115366779]},"properties":{"name":"Steinfurt","cca_2":"05566"}},{"type":"Feature","geometry":{"type":"Point","coordinates":[7.95829493253,51.8702227935]},"properties":{"name":"Warendorf","cca_2":"05570"}},{"type":"Feature","geometry":{"type":"Point","coordinates":[8.54074389731,52.0109486234]},"properties":{"name":"Bielefeld","cca_2":"05711"}},{"type":"Feature","geometry":{"type":"Point","coordinates":[8.35138605299,51.9317089342]},"properties":{"name":"Gütersloh","cca_2":"05754"}},{"type":"Feature","geometry":{"type":"Point","coordinates":[8.64393163854,52.1675778068]},"properties":{"name":"Herford","cca_2":"05758"}},{"type":"Feature","geometry":{"type":"Point","coordinates":[9.17809149846,51.6849407394]},"properties":{"name":"Höxter","cca_2":"05762"}},{"type":"Feature","geometry":{"type":"Point","coordinates":[8.95083727251,51.9814226536]},"properties":{"name":"Lippe","cca_2":"05766"}},{"type":"Feature","geometry":{"type":"Point","coordinates":[8.73934839311,52.3524754985]},"properties":{"name":"Minden-Lübbecke","cca_2":"05770"}},{"type":"Feature","geometry":{"type":"Point","coordinates":[8.7196350334,51.6641754561]},"properties":{"name":"Paderborn","cca_2":"05774"}},{"type":"Feature","geometry":{"type":"Point","coordinates":[7.22493523189,51.469927372]},"properties":{"name":"Bochum","cca_2":"05911"}},{"type":"Feature","geometry":{"type":"Point","coordinates":[7.47490090518,51.5160775711]},"properties":{"name":"Dortmund","cca_2":"05913"}},{"type":"Feature","geometry":{"type":"Point","coordinates":[7.49755553757,51.348045073]},"properties":{"name":"Hagen","cca_2":"05914"}},{"type":"Feature","geometry":{"type":"Point","coordinates":[7.82358619294,51.6651743978]},"properties":{"name":"Hamm","cca_2":"05915"}},{"type":"Feature","geometry":{"type":"Point","coordinates":[7.20855761523,51.5375332354]},"properties":{"name":"Herne","cca_2":"05916"}},{"type":"Feature","geometry":{"type":"Point","coordinates":[7.3240293336299995,51.3468447914]},"properties":{"name":"Ennepe-Ruhr-Kreis","cca_2":"05954"}},{"type":"Feature","geometry":{"type":"Point","coordinates":[8.38507986661,51.3068253808]},"properties":{"name":"Hochsauerlandkreis","cca_2":"05958"}},{"type":"Feature","geometry":{"type":"Point","coordinates":[7.71300809906,51.2626114418]},"properties":{"name":"Märkischer Kreis","cca_2":"05962"}},{"type":"Feature","geometry":{"type":"Point","coordinates":[7.97647726624,51.0861595881]},"properties":{"name":"Olpe","cca_2":"05966"}},{"type":"Feature","geometry":{"type":"Point","coordinates":[8.19517026923,50.9377386445]},"properties":{"name":"Siegen-Wittgenstein","cca_2":"05970"}},{"type":"Feature","geometry":{"type":"Point","coordinates":[8.21743743758,51.5644104976]},"properties":{"name":"Soest","cca_2":"05974"}},{"type":"Feature","geometry":{"type":"Point","coordinates":[7.6364445850700005,51.5785745363]},"properties":{"name":"Unna","cca_2":"05978"}},{"type":"Feature","geometry":{"type":"Point","coordinates":[8.66468155462,49.88144614]},"properties":{"name":"Darmstadt","cca_2":"06411"}},{"type":"Feature","geometry":{"type":"Point","coordinates":[8.64419039448,50.117968104]},"properties":{"name":"Frankfurt am Main","cca_2":"06412"}},{"type":"Feature","geometry":{"type":"Point","coordinates":[8.78096226536,50.091078767]},"properties":{"name":"Offenbach am Main","cca_2":"06413"}},{"type":"Feature","geometry":{"type":"Point","coordinates":[8.26036646911,50.0791566662]},"properties":{"name":"Wiesbaden","cca_2":"06414"}},{"type":"Feature","geometry":{"type":"Point","coordinates":[8.66011611597,49.6177012221]},"properties":{"name":"Bergstraße","cca_2":"06431"}},{"type":"Feature","geometry":{"type":"Point","coordinates":[8.79546987935,49.8555038512]},"properties":{"name":"Darmstadt-Dieburg","cca_2":"06432"}},{"type":"Feature","geometry":{"type":"Point","coordinates":[8.47025247743,49.9045086093]},"properties":{"name":"Groß-Gerau","cca_2":"06433"}},{"type":"Feature","geometry":{"type":"Point","coordinates":[8.50464605826,50.2816152547]},"properties":{"name":"Hochtaunuskreis","cca_2":"06434"}},{"type":"Feature","geometry":{"type":"Point","coordinates":[9.28622299151,50.2438645181]},"properties":{"name":"Main-Kinzig-Kreis","cca_2":"06435"}},{"type":"Feature","geometry":{"type":"Point","coordinates":[8.43457121479,50.1025789147]},"properties":{"name":"Main-Taunus-Kreis","cca_2":"06436"}},{"type":"Feature","geometry":{"type":"Point","coordinates":[8.97952523934,49.6715861652]},"properties":{"name":"Odenwaldkreis","cca_2":"06437"}},{"type":"Feature","geometry":{"type":"Point","coordinates":[8.81143914637,50.0216774635]},"properties":{"name":"Offenbach","cca_2":"06438"}},{"type":"Feature","geometry":{"type":"Point","coordinates":[8.08113471294,50.1419717211]},"properties":{"name":"Rheingau-Taunus-Kreis","cca_2":"06439"}},{"type":"Feature","geometry":{"type":"Point","coordinates":[8.90765705912,50.3547764783]},"properties":{"name":"Wetteraukreis","cca_2":"06440"}},{"type":"Feature","geometry":{"type":"Point","coordinates":[8.80751371735,50.5702779049]},"properties":{"name":"Gießen","cca_2":"06531"}},{"type":"Feature","geometry":{"type":"Point","coordinates":[8.36532824,50.6482687297]},"properties":{"name":"Lahn-Dill-Kreis","cca_2":"06532"}},{"type":"Feature","geometry":{"type":"Point","coordinates":[8.19943723806,50.4274703547]},"properties":{"name":"Limburg-Weilburg","cca_2":"06533"}},{"type":"Feature","geometry":{"type":"Point","coordinates":[8.73804376785,50.8368638341]},"properties":{"name":"Marburg-Biedenkopf","cca_2":"06534"}},{"type":"Feature","geometry":{"type":"Point","coordinates":[9.27137950882,50.6381193653]},"properties":{"name":"Vogelsbergkreis","cca_2":"06535"}},{"type":"Feature","geometry":{"type":"Point","coordinates":[9.46020305009,51.3114548137]},"properties":{"name":"Kassel","cca_2":"06611"}},{"type":"Feature","geometry":{"type":"Point","coordinates":[9.75913916517,50.5638809858]},"properties":{"name":"Fulda","cca_2":"06631"}},{"type":"Feature","geometry":{"type":"Point","coordinates":[9.7529324059,50.90618961]},"properties":{"name":"Hersfeld-Rotenburg","cca_2":"06632"}},{"type":"Feature","geometry":{"type":"Point","coordinates":[9.4070389164,51.4012961379]},"properties":{"name":"Kassel","cca_2":"06633"}},{"type":"Feature","geometry":{"type":"Point","coordinates":[9.3736523386,51.0237758195]},"properties":{"name":"Schwalm-Eder-Kreis","cca_2":"06634"}},{"type":"Feature","geometry":{"type":"Point","coordinates":[8.88888422026,51.1906875733]},"properties":{"name":"Waldeck-Frankenberg","cca_2":"06635"}},{"type":"Feature","geometry":{"type":"Point","coordinates":[9.92890620729,51.190756376]},"properties":{"name":"Werra-Meißner-Kreis","cca_2":"06636"}},{"type":"Feature","geometry":{"type":"Point","coordinates":[7.5795510239,50.348516061]},"properties":{"name":"Koblenz","cca_2":"07111"}},{"type":"Feature","geometry":{"type":"Point","coordinates":[7.04497643896,50.4675853221]},"properties":{"name":"Ahrweiler","cca_2":"07131"}},{"type":"Feature","geometry":{"type":"Point","coordinates":[7.74412525976,50.750747657]},"properties":{"name":"Altenkirchen (Westerwald)","cca_2":"07132"}},{"type":"Feature","geometry":{"type":"Point","coordinates":[7.68666499174,49.8248204055]},"properties":{"name":"Bad Kreuznach","cca_2":"07133"}},{"type":"Feature","geometry":{"type":"Point","coordinates":[7.27765459793,49.7125403895]},"properties":{"name":"Birkenfeld","cca_2":"07134"}},{"type":"Feature","geometry":{"type":"Point","coordinates":[7.17431996528,50.1328800059]},"properties":{"name":"Cochem-Zell","cca_2":"07135"}},{"type":"Feature","geometry":{"type":"Point","coordinates":[7.33216943214,50.3316078654]},"properties":{"name":"Mayen-Koblenz","cca_2":"07137"}},{"type":"Feature","geometry":{"type":"Point","coordinates":[7.46900064967,50.5577005458]},"properties":{"name":"Neuwied","cca_2":"07138"}},{"type":"Feature","geometry":{"type":"Point","coordinates":[7.50009971248,50.0442098205]},"properties":{"name":"Rhein-Hunsrück-Kreis","cca_2":"07140"}},{"type":"Feature","geometry":{"type":"Point","coordinates":[7.84270993642,50.2632817442]},"properties":{"name":"Rhein-Lahn-Kreis","cca_2":"07141"}},{"type":"Feature","geometry":{"type":"Point","coordinates":[7.86568137201,50.552349370499996]},"properties":{"name":"Westerwaldkreis","cca_2":"07143"}},{"type":"Feature","geometry":{"type":"Point","coordinates":[6.65505102152,49.762938832]},"properties":{"name":"Trier","cca_2":"07211"}},{"type":"Feature","geometry":{"type":"Point","coordinates":[6.96721862193,49.924645182]},"properties":{"name":"Bernkastel-Wittlich","cca_2":"07231"}},{"type":"Feature","geometry":{"type":"Point","coordinates":[6.41012996519,50.0621597731]},"properties":{"name":"Eifelkreis Bitburg-Prüm","cca_2":"07232"}},{"type":"Feature","geometry":{"type":"Point","coordinates":[6.74865373201,50.2383358519]},"properties":{"name":"Vulkaneifel","cca_2":"07233"}},{"type":"Feature","geometry":{"type":"Point","coordinates":[6.69519559648,49.6964711338]},"properties":{"name":"Trier-Saarburg","cca_2":"07235"}},{"type":"Feature","geometry":{"type":"Point","coordinates":[8.35688379873,49.5330640295]},"properties":{"name":"Frankenthal (Pfalz)","cca_2":"07311"}},{"type":"Feature","geometry":{"type":"Point","coordinates":[7.76067474783,49.4328526023]},"properties":{"name":"Kaiserslautern","cca_2":"07312"}},{"type":"Feature","geometry":{"type":"Point","coordinates":[8.05060075998,49.2244938821]},"properties":{"name":"Landau in der Pfalz","cca_2":"07313"}},{"type":"Feature","geometry":{"type":"Point","coordinates":[8.39684453576,49.4820876658]},"properties":{"name":"Ludwigshafen am Rhein","cca_2":"07314"}},{"type":"Feature","geometry":{"type":"Point","coordinates":[8.24149708463,49.9741865223]},"properties":{"name":"Mainz","cca_2":"07315"}},{"type":"Feature","geometry":{"type":"Point","coordinates":[8.15228785937,49.3418758196]},"properties":{"name":"Neustadt an der Weinstraße","cca_2":"07316"}},{"type":"Feature","geometry":{"type":"Point","coordinates":[7.59436316477,49.1971270853]},"properties":{"name":"Pirmasens","cca_2":"07317"}},{"type":"Feature","geometry":{"type":"Point","coordinates":[8.43501974938,49.3297181375]},"properties":{"name":"Speyer","cca_2":"07318"}},{"type":"Feature","geometry":{"type":"Point","coordinates":[8.32452863106,49.6494455343]},"properties":{"name":"Worms","cca_2":"07319"}},{"type":"Feature","geometry":{"type":"Point","coordinates":[7.36539388964,49.2481606938]},"properties":{"name":"Zweibrücken","cca_2":"07320"}},{"type":"Feature","geometry":{"type":"Point","coordinates":[8.15718502019,49.759441395]},"properties":{"name":"Alzey-Worms","cca_2":"07331"}},{"type":"Feature","geometry":{"type":"Point","coordinates":[8.11030493729,49.4530205976]},"properties":{"name":"Bad Dürkheim","cca_2":"07332"}},{"type":"Feature","geometry":{"type":"Point","coordinates":[7.9150113274,49.631983052]},"properties":{"name":"Donnersbergkreis","cca_2":"07333"}},{"type":"Feature","geometry":{"type":"Point","coordinates":[8.2461937699,49.1159081733]},"properties":{"name":"Germersheim","cca_2":"07334"}},{"type":"Feature","geometry":{"type":"Point","coordinates":[7.6849815727,49.446222318]},"properties":{"name":"Kaiserslautern","cca_2":"07335"}},{"type":"Feature","geometry":{"type":"Point","coordinates":[7.47132028218,49.5498108558]},"properties":{"name":"Kusel","cca_2":"07336"}},{"type":"Feature","geometry":{"type":"Point","coordinates":[8.04807600445,49.1903823441]},"properties":{"name":"Südliche Weinstraße","cca_2":"07337"}},{"type":"Feature","geometry":{"type":"Point","coordinates":[8.36068108599,49.416649982]},"properties":{"name":"Rhein-Pfalz-Kreis","cca_2":"07338"}},{"type":"Feature","geometry":{"type":"Point","coordinates":[8.07964875059,49.9220138826]},"properties":{"name":"Mainz-Bingen","cca_2":"07339"}},{"type":"Feature","geometry":{"type":"Point","coordinates":[7.65886718981,49.2082747366]},"properties":{"name":"Südwestpfalz","cca_2":"07340"}},{"type":"Feature","geometry":{"type":"Point","coordinates":[9.17206798796,48.7745339639]},"properties":{"name":"Stuttgart","cca_2":"08111"}},{"type":"Feature","geometry":{"type":"Point","coordinates":[8.9427773012,48.6782256288]},"properties":{"name":"Böblingen","cca_2":"08115"}},{"type":"Feature","geometry":{"type":"Point","coordinates":[9.36916572775,48.6480216763]},"properties":{"name":"Esslingen","cca_2":"08116"}},{"type":"Feature","geometry":{"type":"Point","coordinates":[9.717504977059999,48.6631483606]},"properties":{"name":"Göppingen","cca_2":"08117"}},{"type":"Feature","geometry":{"type":"Point","coordinates":[9.12434425665,48.940602979]},"properties":{"name":"Ludwigsburg","cca_2":"08118"}},{"type":"Feature","geometry":{"type":"Point","coordinates":[9.50121295556,48.899008131]},"properties":{"name":"Rems-Murr-Kreis","cca_2":"08119"}},{"type":"Feature","geometry":{"type":"Point","coordinates":[9.18234690067,49.1527195922]},"properties":{"name":"Heilbronn","cca_2":"08121"}},{"type":"Feature","geometry":{"type":"Point","coordinates":[9.19077872323,49.177198517]},"properties":{"name":"Heilbronn","cca_2":"08125"}},{"type":"Feature","geometry":{"type":"Point","coordinates":[9.61413578119,49.2715461389]},"properties":{"name":"Hohenlohekreis","cca_2":"08126"}},{"type":"Feature","geometry":{"type":"Point","coordinates":[9.90893216762,49.1444689707]},"properties":{"name":"Schwäbisch Hall","cca_2":"08127"}},{"type":"Feature","geometry":{"type":"Point","coordinates":[9.72508840096,49.5607007055]},"properties":{"name":"Main-Tauber-Kreis","cca_2":"08128"}},{"type":"Feature","geometry":{"type":"Point","coordinates":[10.182150425,48.6622814605]},"properties":{"name":"Heidenheim","cca_2":"08135"}},{"type":"Feature","geometry":{"type":"Point","coordinates":[10.0901573582,48.877525969]},"properties":{"name":"Ostalbkreis","cca_2":"08136"}},{"type":"Feature","geometry":{"type":"Point","coordinates":[8.23176220313,48.748527439]},"properties":{"name":"Baden-Baden","cca_2":"08211"}},{"type":"Feature","geometry":{"type":"Point","coordinates":[8.41266976981,49.0113339856]},"properties":{"name":"Karlsruhe","cca_2":"08212"}},{"type":"Feature","geometry":{"type":"Point","coordinates":[8.56279664203,49.0818849258]},"properties":{"name":"Karlsruhe","cca_2":"08215"}},{"type":"Feature","geometry":{"type":"Point","coordinates":[8.24124756893,48.7618192531]},"properties":{"name":"Rastatt","cca_2":"08216"}},{"type":"Feature","geometry":{"type":"Point","coordinates":[8.69417184974,49.4055152955]},"properties":{"name":"Heidelberg","cca_2":"08221"}},{"type":"Feature","geometry":{"type":"Point","coordinates":[8.50032443773,49.4994190357]},"properties":{"name":"Mannheim","cca_2":"08222"}},{"type":"Feature","geometry":{"type":"Point","coordinates":[9.28011000163,49.4666097739]},"properties":{"name":"Neckar-Odenwald-Kreis","cca_2":"08225"}},{"type":"Feature","geometry":{"type":"Point","coordinates":[8.76708442595,49.3684849338]},"properties":{"name":"Rhein-Neckar-Kreis","cca_2":"08226"}},{"type":"Feature","geometry":{"type":"Point","coordinates":[8.71277909336,48.8764005469]},"properties":{"name":"Pforzheim","cca_2":"08231"}},{"type":"Feature","geometry":{"type":"Point","coordinates":[8.6357698286,48.6789990614]},"properties":{"name":"Calw","cca_2":"08235"}},{"type":"Feature","geometry":{"type":"Point","coordinates":[8.73708120338,48.9144669267]},"properties":{"name":"Enzkreis","cca_2":"08236"}},{"type":"Feature","geometry":{"type":"Point","coordinates":[8.4653129709,48.4744061685]},"properties":{"name":"Freudenstadt","cca_2":"08237"}},{"type":"Feature","geometry":{"type":"Point","coordinates":[7.81807596197,47.9925229956]},"properties":{"name":"Freiburg im Breisgau","cca_2":"08311"}},{"type":"Feature","geometry":{"type":"Point","coordinates":[7.92494089685,47.9249093559]},"properties":{"name":"Breisgau-Hochschwarzwald","cca_2":"08315"}},{"type":"Feature","geometry":{"type":"Point","coordinates":[7.89755038202,48.1485120637]},"properties":{"name":"Emmendingen","cca_2":"08316"}},{"type":"Feature","geometry":{"type":"Point","coordinates":[8.01621990932,48.4209719355]},"properties":{"name":"Ortenaukreis","cca_2":"08317"}},{"type":"Feature","geometry":{"type":"Point","coordinates":[8.53235133177,48.254220293]},"properties":{"name":"Rottweil","cca_2":"08325"}},{"type":"Feature","geometry":{"type":"Point","coordinates":[8.41096435345,48.0191197382]},"properties":{"name":"Schwarzwald-Baar-Kreis","cca_2":"08326"}},{"type":"Feature","geometry":{"type":"Point","coordinates":[8.7941361763,48.01120044]},"properties":{"name":"Tuttlingen","cca_2":"08327"}},{"type":"Feature","geometry":{"type":"Point","coordinates":[8.9157630123,47.7932127909]},"properties":{"name":"Konstanz","cca_2":"08335"}},{"type":"Feature","geometry":{"type":"Point","coordinates":[7.77402882816,47.703504023]},"properties":{"name":"Lörrach","cca_2":"08336"}},{"type":"Feature","geometry":{"type":"Point","coordinates":[8.21889239137,47.6971334745]},"properties":{"name":"Waldshut","cca_2":"08337"}},{"type":"Feature","geometry":{"type":"Point","coordinates":[9.36572629856,48.4064763532]},"properties":{"name":"Reutlingen","cca_2":"08415"}},{"type":"Feature","geometry":{"type":"Point","coordinates":[8.98763400076,48.481737902]},"properties":{"name":"Tübingen","cca_2":"08416"}},{"type":"Feature","geometry":{"type":"Point","coordinates":[8.93742839835,48.2672389069]},"properties":{"name":"Zollernalbkreis","cca_2":"08417"}},{"type":"Feature","geometry":{"type":"Point","coordinates":[9.9500211353,48.3908327419]},"properties":{"name":"Ulm","cca_2":"08421"}},{"type":"Feature","geometry":{"type":"Point","coordinates":[9.82744714375,48.4017114301]},"properties":{"name":"Alb-Donau-Kreis","cca_2":"08425"}},{"type":"Feature","geometry":{"type":"Point","coordinates":[9.77425436647,48.1075826288]},"properties":{"name":"Biberach","cca_2":"08426"}},{"type":"Feature","geometry":{"type":"Point","coordinates":[9.40077001359,47.7334602866]},"properties":{"name":"Bodenseekreis","cca_2":"08435"}},{"type":"Feature","geometry":{"type":"Point","coordinates":[9.77989455833,47.8250441153]},"properties":{"name":"Ravensburg","cca_2":"08436"}},{"type":"Feature","geometry":{"type":"Point","coordinates":[9.24100350319,48.0391514971]},"properties":{"name":"Sigmaringen","cca_2":"08437"}},{"type":"Feature","geometry":{"type":"Point","coordinates":[11.3950069326,48.7550927761]},"properties":{"name":"Ingolstadt","cca_2":"09161"}},{"type":"Feature","geometry":{"type":"Point","coordinates":[11.5472441841,48.1532131611]},"properties":{"name":"München","cca_2":"09162"}},{"type":"Feature","geometry":{"type":"Point","coordinates":[12.1087247511,47.8443777181]},"properties":{"name":"Rosenheim","cca_2":"09163"}},{"type":"Feature","geometry":{"type":"Point","coordinates":[12.7052826752,48.2098044272]},"properties":{"name":"Altötting","cca_2":"09171"}},{"type":"Feature","geometry":{"type":"Point","coordinates":[12.9018660877,47.6984724021]},"properties":{"name":"Berchtesgadener Land","cca_2":"09172"}},{"type":"Feature","geometry":{"type":"Point","coordinates":[11.4831153973,47.7274771535]},"properties":{"name":"Bad Tölz-Wolfratshausen","cca_2":"09173"}},{"type":"Feature","geometry":{"type":"Point","coordinates":[11.3571128101,48.3345482595]},"properties":{"name":"Dachau","cca_2":"09174"}},{"type":"Feature","geometry":{"type":"Point","coordinates":[11.9131721198,48.0761776106]},"properties":{"name":"Ebersberg","cca_2":"09175"}},{"type":"Feature","geometry":{"type":"Point","coordinates":[11.3703873291,48.8980875603]},"properties":{"name":"Eichstätt","cca_2":"09176"}},{"type":"Feature","geometry":{"type":"Point","coordinates":[12.0006246986,48.3003970808]},"properties":{"name":"Erding","cca_2":"09177"}},{"type":"Feature","geometry":{"type":"Point","coordinates":[11.7406716932,48.4473569802]},"properties":{"name":"Freising","cca_2":"09178"}},{"type":"Feature","geometry":{"type":"Point","coordinates":[11.2010776242,48.1877932949]},"properties":{"name":"Fürstenfeldbruck","cca_2":"09179"}},{"type":"Feature","geometry":{"type":"Point","coordinates":[11.1296286125,47.5563489806]},"properties":{"name":"Garmisch-Partenkirchen","cca_2":"09180"}},{"type":"Feature","geometry":{"type":"Point","coordinates":[10.948734677400001,48.0244353759]},"properties":{"name":"Landsberg am Lech","cca_2":"09181"}},{"type":"Feature","geometry":{"type":"Point","coordinates":[11.8089897365,47.7416453347]},"properties":{"name":"Miesbach","cca_2":"09182"}},{"type":"Feature","geometry":{"type":"Point","coordinates":[12.3818280217,48.2393145242]},"properties":{"name":"Mühldorf a. Inn","cca_2":"09183"}},{"type":"Feature","geometry":{"type":"Point","coordinates":[11.6313680405,48.0744744023]},"properties":{"name":"München","cca_2":"09184"}},{"type":"Feature","geometry":{"type":"Point","coordinates":[11.197210668,48.6644203317]},"properties":{"name":"Neuburg-Schrobenhausen","cca_2":"09185"}},{"type":"Feature","geometry":{"type":"Point","coordinates":[11.5242827055,48.5962751771]},"properties":{"name":"Pfaffenhofen a.d. Ilm","cca_2":"09186"}},{"type":"Feature","geometry":{"type":"Point","coordinates":[12.162753976,47.8783797472]},"properties":{"name":"Rosenheim","cca_2":"09187"}},{"type":"Feature","geometry":{"type":"Point","coordinates":[11.2817326717,48.0060469771]},"properties":{"name":"Starnberg","cca_2":"09188"}},{"type":"Feature","geometry":{"type":"Point","coordinates":[12.5795750694,47.8945427587]},"properties":{"name":"Traunstein","cca_2":"09189"}},{"type":"Feature","geometry":{"type":"Point","coordinates":[11.0483364745,47.7875370323]},"properties":{"name":"Weilheim-Schongau","cca_2":"09190"}},{"type":"Feature","geometry":{"type":"Point","coordinates":[12.1593416454,48.5446699826]},"properties":{"name":"Landshut","cca_2":"09261"}},{"type":"Feature","geometry":{"type":"Point","coordinates":[13.4150504225,48.5820983986]},"properties":{"name":"Passau","cca_2":"09262"}},{"type":"Feature","geometry":{"type":"Point","coordinates":[12.5734748714,48.8807544792]},"properties":{"name":"Straubing","cca_2":"09263"}},{"type":"Feature","geometry":{"type":"Point","coordinates":[13.0007258015,48.7787021164]},"properties":{"name":"Deggendorf","cca_2":"09271"}},{"type":"Feature","geometry":{"type":"Point","coordinates":[13.513210064,48.8268581711]},"properties":{"name":"Freyung-Grafenau","cca_2":"09272"}},{"type":"Feature","geometry":{"type":"Point","coordinates":[11.857554442,48.8249414287]},"properties":{"name":"Kelheim","cca_2":"09273"}},{"type":"Feature","geometry":{"type":"Point","coordinates":[12.1953924179,48.5577554134]},"properties":{"name":"Landshut","cca_2":"09274"}},{"type":"Feature","geometry":{"type":"Point","coordinates":[13.3666035859,48.5586304532]},"properties":{"name":"Passau","cca_2":"09275"}},{"type":"Feature","geometry":{"type":"Point","coordinates":[13.0997637882,49.0228144148]},"properties":{"name":"Regen","cca_2":"09276"}},{"type":"Feature","geometry":{"type":"Point","coordinates":[12.8673504326,48.4245198693]},"properties":{"name":"Rottal-Inn","cca_2":"09277"}},{"type":"Feature","geometry":{"type":"Point","coordinates":[12.5824039909,48.89970504]},"properties":{"name":"Straubing-Bogen","cca_2":"09278"}},{"type":"Feature","geometry":{"type":"Point","coordinates":[12.6104771899,48.641164618]},"properties":{"name":"Dingolfing-Landau","cca_2":"09279"}},{"type":"Feature","geometry":{"type":"Point","coordinates":[11.8453726034,49.4509277374]},"properties":{"name":"Amberg","cca_2":"09361"}},{"type":"Feature","geometry":{"type":"Point","coordinates":[12.1137308794,49.0130808954]},"properties":{"name":"Regensburg","cca_2":"09362"}},{"type":"Feature","geometry":{"type":"Point","coordinates":[12.1545339322,49.6692496128]},"properties":{"name":"Weiden i.d. OPf.","cca_2":"09363"}},{"type":"Feature","geometry":{"type":"Point","coordinates":[11.8009532083,49.4867511317]},"properties":{"name":"Amberg-Sulzbach","cca_2":"09371"}},{"type":"Feature","geometry":{"type":"Point","coordinates":[12.6954795471,49.2370651553]},"properties":{"name":"Cham","cca_2":"09372"}},{"type":"Feature","geometry":{"type":"Point","coordinates":[11.5665579197,49.2159614099]},"properties":{"name":"Neumarkt i.d. OPf.","cca_2":"09373"}},{"type":"Feature","geometry":{"type":"Point","coordinates":[12.0982574415,49.6865828841]},"properties":{"name":"Neustadt a.d. Waldnaab","cca_2":"09374"}},{"type":"Feature","geometry":{"type":"Point","coordinates":[12.1211612289,49.0213433263]},"properties":{"name":"Regensburg","cca_2":"09375"}},{"type":"Feature","geometry":{"type":"Point","coordinates":[12.2530847621,49.3680333605]},"properties":{"name":"Schwandorf","cca_2":"09376"}},{"type":"Feature","geometry":{"type":"Point","coordinates":[12.2003418405,49.8993890086]},"properties":{"name":"Tirschenreuth","cca_2":"09377"}},{"type":"Feature","geometry":{"type":"Point","coordinates":[10.8989362521,49.8872221328]},"properties":{"name":"Bamberg","cca_2":"09461"}},{"type":"Feature","geometry":{"type":"Point","coordinates":[11.5846727854,49.9377427404]},"properties":{"name":"Bayreuth","cca_2":"09462"}},{"type":"Feature","geometry":{"type":"Point","coordinates":[10.9644386599,50.2639516155]},"properties":{"name":"Coburg","cca_2":"09463"}},{"type":"Feature","geometry":{"type":"Point","coordinates":[11.8972631725,50.3107956285]},"properties":{"name":"Hof","cca_2":"09464"}},{"type":"Feature","geometry":{"type":"Point","coordinates":[10.8836637829,49.893428617]},"properties":{"name":"Bamberg","cca_2":"09471"}},{"type":"Feature","geometry":{"type":"Point","coordinates":[11.5551557567,49.8837610883]},"properties":{"name":"Bayreuth","cca_2":"09472"}},{"type":"Feature","geometry":{"type":"Point","coordinates":[10.9423260473,50.267889506]},"properties":{"name":"Coburg","cca_2":"09473"}},{"type":"Feature","geometry":{"type":"Point","coordinates":[11.1731319634,49.7209968812]},"properties":{"name":"Forchheim","cca_2":"09474"}},{"type":"Feature","geometry":{"type":"Point","coordinates":[11.8191928507,50.2732120456]},"properties":{"name":"Hof","cca_2":"09475"}},{"type":"Feature","geometry":{"type":"Point","coordinates":[11.3720466405,50.3279632281]},"properties":{"name":"Kronach","cca_2":"09476"}},{"type":"Feature","geometry":{"type":"Point","coordinates":[11.4822991401,50.1026420807]},"properties":{"name":"Kulmbach","cca_2":"09477"}},{"type":"Feature","geometry":{"type":"Point","coordinates":[11.1169215721,50.1093305037]},"properties":{"name":"Lichtenfels","cca_2":"09478"}},{"type":"Feature","geometry":{"type":"Point","coordinates":[12.0418721069,50.0901405328]},"properties":{"name":"Wunsiedel i. Fichtelgebirge","cca_2":"09479"}},{"type":"Feature","geometry":{"type":"Point","coordinates":[10.563669430000001,49.2921846581]},"properties":{"name":"Ansbach","cca_2":"09561"}},{"type":"Feature","geometry":{"type":"Point","coordinates":[10.9781449629,49.5823292133]},"properties":{"name":"Erlangen","cca_2":"09562"}},{"type":"Feature","geometry":{"type":"Point","coordinates":[10.9654822077,49.4914188335]},"properties":{"name":"Fürth","cca_2":"09563"}},{"type":"Feature","geometry":{"type":"Point","coordinates":[11.0827553426,49.4362114486]},"properties":{"name":"Nürnberg","cca_2":"09564"}},{"type":"Feature","geometry":{"type":"Point","coordinates":[11.0235125889,49.3356205083]},"properties":{"name":"Schwabach","cca_2":"09565"}},{"type":"Feature","geometry":{"type":"Point","coordinates":[10.4681333941,49.2481645834]},"properties":{"name":"Ansbach","cca_2":"09571"}},{"type":"Feature","geometry":{"type":"Point","coordinates":[10.9148933012,49.6400408309]},"properties":{"name":"Erlangen-Höchstadt","cca_2":"09572"}},{"type":"Feature","geometry":{"type":"Point","coordinates":[10.8496864939,49.4466905187]},"properties":{"name":"Fürth","cca_2":"09573"}},{"type":"Feature","geometry":{"type":"Point","coordinates":[11.3694064626,49.4919039379]},"properties":{"name":"Nürnberger Land","cca_2":"09574"}},{"type":"Feature","geometry":{"type":"Point","coordinates":[10.4652916664,49.5694835927]},"properties":{"name":"Neustadt a.d. Aisch-Bad Windsheim","cca_2":"09575"}},{"type":"Feature","geometry":{"type":"Point","coordinates":[11.1235654086,49.2029170864]},"properties":{"name":"Roth","cca_2":"09576"}},{"type":"Feature","geometry":{"type":"Point","coordinates":[10.8936591358,49.0326858351]},"properties":{"name":"Weißenburg-Gunzenhausen","cca_2":"09577"}},{"type":"Feature","geometry":{"type":"Point","coordinates":[9.14581192433,49.9638560444]},"properties":{"name":"Aschaffenburg","cca_2":"09661"}},{"type":"Feature","geometry":{"type":"Point","coordinates":[10.2208919522,50.0470080022]},"properties":{"name":"Schweinfurt","cca_2":"09662"}},{"type":"Feature","geometry":{"type":"Point","coordinates":[9.94089602932,49.7846554247]},"properties":{"name":"Würzburg","cca_2":"09663"}},{"type":"Feature","geometry":{"type":"Point","coordinates":[9.23803745665,50.0080931044]},"properties":{"name":"Aschaffenburg","cca_2":"09671"}},{"type":"Feature","geometry":{"type":"Point","coordinates":[9.96470110779,50.2225139424]},"properties":{"name":"Bad Kissingen","cca_2":"09672"}},{"type":"Feature","geometry":{"type":"Point","coordinates":[10.2549075725,50.3713127519]},"properties":{"name":"Rhön-Grabfeld","cca_2":"09673"}},{"type":"Feature","geometry":{"type":"Point","coordinates":[10.6069788351,50.0628789327]},"properties":{"name":"Haßberge","cca_2":"09674"}},{"type":"Feature","geometry":{"type":"Point","coordinates":[10.2560624461,49.7532253896]},"properties":{"name":"Kitzingen","cca_2":"09675"}},{"type":"Feature","geometry":{"type":"Point","coordinates":[9.23471658769,49.7572905887]},"properties":{"name":"Miltenberg","cca_2":"09676"}},{"type":"Feature","geometry":{"type":"Point","coordinates":[9.66268166277,49.9935822339]},"properties":{"name":"Main-Spessart","cca_2":"09677"}},{"type":"Feature","geometry":{"type":"Point","coordinates":[10.2599503138,50.016881784]},"properties":{"name":"Schweinfurt","cca_2":"09678"}},{"type":"Feature","geometry":{"type":"Point","coordinates":[9.92736341488,49.737626672]},"properties":{"name":"Würzburg","cca_2":"09679"}},{"type":"Feature","geometry":{"type":"Point","coordinates":[10.885505361,48.3455708649]},"properties":{"name":"Augsburg","cca_2":"09761"}},{"type":"Feature","geometry":{"type":"Point","coordinates":[10.6160967463,47.8799285987]},"properties":{"name":"Kaufbeuren","cca_2":"09762"}},{"type":"Feature","geometry":{"type":"Point","coordinates":[10.3081184931,47.7381842508]},"properties":{"name":"Kempten (Allgäu)","cca_2":"09763"}},{"type":"Feature","geometry":{"type":"Point","coordinates":[10.1630276762,47.9787874869]},"properties":{"name":"Memmingen","cca_2":"09764"}},{"type":"Feature","geometry":{"type":"Point","coordinates":[11.0527555565,48.4275701484]},"properties":{"name":"Aichach-Friedberg","cca_2":"09771"}},{"type":"Feature","geometry":{"type":"Point","coordinates":[10.7320845344,48.3542871832]},"properties":{"name":"Augsburg","cca_2":"09772"}},{"type":"Feature","geometry":{"type":"Point","coordinates":[10.527764168000001,48.5964037974]},"properties":{"name":"Dillingen a.d. Donau","cca_2":"09773"}},{"type":"Feature","geometry":{"type":"Point","coordinates":[10.3811312115,48.3528138472]},"properties":{"name":"Günzburg","cca_2":"09774"}},{"type":"Feature","geometry":{"type":"Point","coordinates":[10.1411558091,48.2982265453]},"properties":{"name":"Neu-Ulm","cca_2":"09775"}},{"type":"Feature","geometry":{"type":"Point","coordinates":[9.88286136549,47.6051649499]},"properties":{"name":"Lindau (Bodensee)","cca_2":"09776"}},{"type":"Feature","geometry":{"type":"Point","coordinates":[10.6397316342,47.769959059]},"properties":{"name":"Ostallgäu","cca_2":"09777"}},{"type":"Feature","geometry":{"type":"Point","coordinates":[10.3892327572,48.0398130352]},"properties":{"name":"Unterallgäu","cca_2":"09778"}},{"type":"Feature","geometry":{"type":"Point","coordinates":[10.7123441979,48.8069320352]},"properties":{"name":"Donau-Ries","cca_2":"09779"}},{"type":"Feature","geometry":{"type":"Point","coordinates":[10.2586229074,47.572707564]},"properties":{"name":"Oberallgäu","cca_2":"09780"}},{"type":"Feature","geometry":{"type":"Point","coordinates":[6.95729652837,49.2513823946]},"properties":{"name":"Regionalverband Saarbrücken","cca_2":"10041"}},{"type":"Feature","geometry":{"type":"Point","coordinates":[6.68048479703,49.4957645611]},"properties":{"name":"Merzig-Wadern","cca_2":"10042"}},{"type":"Feature","geometry":{"type":"Point","coordinates":[7.11720320683,49.3757016517]},"properties":{"name":"Neunkirchen","cca_2":"10043"}},{"type":"Feature","geometry":{"type":"Point","coordinates":[6.7755433393899995,49.3553415477]},"properties":{"name":"Saarlouis","cca_2":"10044"}},{"type":"Feature","geometry":{"type":"Point","coordinates":[7.24222124863,49.2486993859]},"properties":{"name":"Saarpfalz-Kreis","cca_2":"10045"}},{"type":"Feature","geometry":{"type":"Point","coordinates":[7.1004332453,49.5195731082]},"properties":{"name":"St. Wendel","cca_2":"10046"}},{"type":"Feature","geometry":{"type":"Point","coordinates":[12.5193337833,52.4027150878]},"properties":{"name":"Brandenburg an der Havel","cca_2":"12051"}},{"type":"Feature","geometry":{"type":"Point","coordinates":[14.3662188537,51.7726930018]},"properties":{"name":"Cottbus","cca_2":"12052"}},{"type":"Feature","geometry":{"type":"Point","coordinates":[14.4903487489,52.3247630784]},"properties":{"name":"Frankfurt (Oder)","cca_2":"12053"}},{"type":"Feature","geometry":{"type":"Point","coordinates":[13.0285491746,52.4261784936]},"properties":{"name":"Potsdam","cca_2":"12054"}},{"type":"Feature","geometry":{"type":"Point","coordinates":[13.7037311303,52.8232279789]},"properties":{"name":"Barnim","cca_2":"12060"}},{"type":"Feature","geometry":{"type":"Point","coordinates":[13.8199407798,52.0423069298]},"properties":{"name":"Dahme-Spreewald","cca_2":"12061"}},{"type":"Feature","geometry":{"type":"Point","coordinates":[13.459588917,51.6122710164]},"properties":{"name":"Elbe-Elster","cca_2":"12062"}},{"type":"Feature","geometry":{"type":"Point","coordinates":[12.6283469145,52.6208208123]},"properties":{"name":"Havelland","cca_2":"12063"}},{"type":"Feature","geometry":{"type":"Point","coordinates":[14.1464643331,52.6067238051]},"properties":{"name":"Märkisch-Oderland","cca_2":"12064"}},{"type":"Feature","geometry":{"type":"Point","coordinates":[13.2053022184,52.9068326453]},"properties":{"name":"Oberhavel","cca_2":"12065"}},{"type":"Feature","geometry":{"type":"Point","coordinates":[13.9436173031,51.6163005208]},"properties":{"name":"Oberspreewald-Lausitz","cca_2":"12066"}},{"type":"Feature","geometry":{"type":"Point","coordinates":[14.2190594331,52.244008511]},"properties":{"name":"Oder-Spree","cca_2":"12067"}},{"type":"Feature","geometry":{"type":"Point","coordinates":[12.6359589515,52.9914230426]},"properties":{"name":"Ostprignitz-Ruppin","cca_2":"12068"}},{"type":"Feature","geometry":{"type":"Point","coordinates":[12.6891435021,52.246294705]},"properties":{"name":"Potsdam-Mittelmark","cca_2":"12069"}},{"type":"Feature","geometry":{"type":"Point","coordinates":[11.9618269267,53.1093267277]},"properties":{"name":"Prignitz","cca_2":"12070"}},{"type":"Feature","geometry":{"type":"Point","coordinates":[14.4331285714,51.7585932354]},"properties":{"name":"Spree-Neiße","cca_2":"12071"}},{"type":"Feature","geometry":{"type":"Point","coordinates":[13.276018196,52.073184313]},"properties":{"name":"Teltow-Fläming","cca_2":"12072"}},{"type":"Feature","geometry":{"type":"Point","coordinates":[13.8612986206,53.2059030724]},"properties":{"name":"Uckermark","cca_2":"12073"}},{"type":"Feature","geometry":{"type":"Point","coordinates":[12.1417471216,54.1463883937]},"properties":{"name":"Rostock","cca_2":"13003"}},{"type":"Feature","geometry":{"type":"Point","coordinates":[11.4165299501,53.6215100516]},"properties":{"name":"Schwerin","cca_2":"13004"}},{"type":"Feature","geometry":{"type":"Point","coordinates":[13.0024606209,53.5436927516]},"properties":{"name":"Mecklenburgische Seenplatte","cca_2":"13071"}},{"type":"Feature","geometry":{"type":"Point","coordinates":[12.220833831,53.91204551]},"properties":{"name":"Rostock","cca_2":"13072"}},{"type":"Feature","geometry":{"type":"Point","coordinates":[12.9915254157,54.2842029523]},"properties":{"name":"Vorpommern-Rügen","cca_2":"13073"}},{"type":"Feature","geometry":{"type":"Point","coordinates":[11.2521094692,53.8215122283]},"properties":{"name":"Nordwestmecklenburg","cca_2":"13074"}},{"type":"Feature","geometry":{"type":"Point","coordinates":[13.780696363,53.7895111552]},"properties":{"name":"Vorpommern-Greifswald","cca_2":"13075"}},{"type":"Feature","geometry":{"type":"Point","coordinates":[11.534141611799999,53.4500470376]},"properties":{"name":"Ludwigslust-Parchim","cca_2":"13076"}},{"type":"Feature","geometry":{"type":"Point","coordinates":[12.911829901499999,50.8263036941]},"properties":{"name":"Chemnitz","cca_2":"14511"}},{"type":"Feature","geometry":{"type":"Point","coordinates":[12.9450724745,50.6088984202]},"properties":{"name":"Erzgebirgskreis","cca_2":"14521"}},{"type":"Feature","geometry":{"type":"Point","coordinates":[13.1375068135,50.9558166403]},"properties":{"name":"Mittelsachsen","cca_2":"14522"}},{"type":"Feature","geometry":{"type":"Point","coordinates":[12.2349996186,50.4567929391]},"properties":{"name":"Vogtlandkreis","cca_2":"14523"}},{"type":"Feature","geometry":{"type":"Point","coordinates":[12.5258055075,50.750774796]},"properties":{"name":"Zwickau","cca_2":"14524"}},{"type":"Feature","geometry":{"type":"Point","coordinates":[13.7834490742,51.0664442924]},"properties":{"name":"Dresden","cca_2":"14612"}},{"type":"Feature","geometry":{"type":"Point","coordinates":[14.2310085239,51.2689135848]},"properties":{"name":"Bautzen","cca_2":"14625"}},{"type":"Feature","geometry":{"type":"Point","coordinates":[14.750796811,51.2256177492]},"properties":{"name":"Görlitz","cca_2":"14626"}},{"type":"Feature","geometry":{"type":"Point","coordinates":[13.4829006825,51.239397748]},"properties":{"name":"Meißen","cca_2":"14627"}},{"type":"Feature","geometry":{"type":"Point","coordinates":[13.8734340504,50.9167179421]},"properties":{"name":"Sächsische Schweiz-Osterzgebirge","cca_2":"14628"}},{"type":"Feature","geometry":{"type":"Point","coordinates":[12.3747717597,51.3422385995]},"properties":{"name":"Leipzig","cca_2":"14713"}},{"type":"Feature","geometry":{"type":"Point","coordinates":[12.5994908653,51.2214366733]},"properties":{"name":"Leipzig","cca_2":"14729"}},{"type":"Feature","geometry":{"type":"Point","coordinates":[12.7793967591,51.4728650798]},"properties":{"name":"Nordsachsen","cca_2":"14730"}},{"type":"Feature","geometry":{"type":"Point","coordinates":[12.2310559599,51.8537380889]},"properties":{"name":"Dessau-Roßlau","cca_2":"15001"}},{"type":"Feature","geometry":{"type":"Point","coordinates":[11.9684968347,51.4798019096]},"properties":{"name":"Halle (Saale)","cca_2":"15002"}},{"type":"Feature","geometry":{"type":"Point","coordinates":[11.6414820231,52.1165976423]},"properties":{"name":"Magdeburg","cca_2":"15003"}},{"type":"Feature","geometry":{"type":"Point","coordinates":[11.2270452746,52.6800481605]},"properties":{"name":"Altmarkkreis Salzwedel","cca_2":"15081"}},{"type":"Feature","geometry":{"type":"Point","coordinates":[12.1432020671,51.7954450255]},"properties":{"name":"Anhalt-Bitterfeld","cca_2":"15082"}},{"type":"Feature","geometry":{"type":"Point","coordinates":[11.3478384337,52.2207122989]},"properties":{"name":"Börde","cca_2":"15083"}},{"type":"Feature","geometry":{"type":"Point","coordinates":[11.8834224288,51.1472256333]},"properties":{"name":"Burgenlandkreis","cca_2":"15084"}},{"type":"Feature","geometry":{"type":"Point","coordinates":[10.9585438222,51.8212958888]},"properties":{"name":"Harz","cca_2":"15085"}},{"type":"Feature","geometry":{"type":"Point","coordinates":[12.0265188373,52.2607898277]},"properties":{"name":"Jerichower Land","cca_2":"15086"}},{"type":"Feature","geometry":{"type":"Point","coordinates":[11.3563584729,51.5356901778]},"properties":{"name":"Mansfeld-Südharz","cca_2":"15087"}},{"type":"Feature","geometry":{"type":"Point","coordinates":[11.865474038,51.4256710773]},"properties":{"name":"Saalekreis","cca_2":"15088"}},{"type":"Feature","geometry":{"type":"Point","coordinates":[11.6427256195,51.8518591913]},"properties":{"name":"Salzlandkreis","cca_2":"15089"}},{"type":"Feature","geometry":{"type":"Point","coordinates":[11.8395343529,52.6967781735]},"properties":{"name":"Stendal","cca_2":"15090"}},{"type":"Feature","geometry":{"type":"Point","coordinates":[12.7015882396,51.8201400674]},"properties":{"name":"Wittenberg","cca_2":"15091"}},{"type":"Feature","geometry":{"type":"Point","coordinates":[11.0202248069,50.9832526908]},"properties":{"name":"Erfurt","cca_2":"16051"}},{"type":"Feature","geometry":{"type":"Point","coordinates":[12.0826961871,50.8940170773]},"properties":{"name":"Gera","cca_2":"16052"}},{"type":"Feature","geometry":{"type":"Point","coordinates":[11.5870112529,50.9242638034]},"properties":{"name":"Jena","cca_2":"16053"}},{"type":"Feature","geometry":{"type":"Point","coordinates":[10.6881775642,50.611602852]},"properties":{"name":"Suhl","cca_2":"16054"}},{"type":"Feature","geometry":{"type":"Point","coordinates":[11.3178722759,50.9783471684]},"properties":{"name":"Weimar","cca_2":"16055"}},{"type":"Feature","geometry":{"type":"Point","coordinates":[10.3001023192,50.9896760625]},"properties":{"name":"Eisenach","cca_2":"16056"}},{"type":"Feature","geometry":{"type":"Point","coordinates":[10.2534853921,51.3836491981]},"properties":{"name":"Eichsfeld","cca_2":"16061"}},{"type":"Feature","geometry":{"type":"Point","coordinates":[10.7309067397,51.5022779756]},"properties":{"name":"Nordhausen","cca_2":"16062"}},{"type":"Feature","geometry":{"type":"Point","coordinates":[10.210703949100001,50.8858017017]},"properties":{"name":"Wartburgkreis","cca_2":"16063"}},{"type":"Feature","geometry":{"type":"Point","coordinates":[10.551795561,51.185238708]},"properties":{"name":"Unstrut-Hainich-Kreis","cca_2":"16064"}},{"type":"Feature","geometry":{"type":"Point","coordinates":[10.9848331992,51.3247630758]},"properties":{"name":"Kyffhäuserkreis","cca_2":"16065"}},{"type":"Feature","geometry":{"type":"Point","coordinates":[10.4050434075,50.6307076864]},"properties":{"name":"Schmalkalden-Meiningen","cca_2":"16066"}},{"type":"Feature","geometry":{"type":"Point","coordinates":[10.6937627152,50.9106605802]},"properties":{"name":"Gotha","cca_2":"16067"}},{"type":"Feature","geometry":{"type":"Point","coordinates":[11.1547511823,51.1578080643]},"properties":{"name":"Sömmerda","cca_2":"16068"}},{"type":"Feature","geometry":{"type":"Point","coordinates":[10.7340904102,50.4340027482]},"properties":{"name":"Hildburghausen","cca_2":"16069"}},{"type":"Feature","geometry":{"type":"Point","coordinates":[10.9663574908,50.7379337622]},"properties":{"name":"Ilm-Kreis","cca_2":"16070"}},{"type":"Feature","geometry":{"type":"Point","coordinates":[11.3735532667,50.9715719951]},"properties":{"name":"Weimarer Land","cca_2":"16071"}},{"type":"Feature","geometry":{"type":"Point","coordinates":[11.1329526551,50.4146305494]},"properties":{"name":"Sonneberg","cca_2":"16072"}},{"type":"Feature","geometry":{"type":"Point","coordinates":[11.3091162493,50.637797959]},"properties":{"name":"Saalfeld-Rudolstadt","cca_2":"16073"}},{"type":"Feature","geometry":{"type":"Point","coordinates":[11.7315307817,50.904172137]},"properties":{"name":"Saale-Holzland-Kreis","cca_2":"16074"}},{"type":"Feature","geometry":{"type":"Point","coordinates":[11.7105737336,50.5808480206]},"properties":{"name":"Saale-Orla-Kreis","cca_2":"16075"}},{"type":"Feature","geometry":{"type":"Point","coordinates":[12.0740705739,50.748459553800004]},"properties":{"name":"Greiz","cca_2":"16076"}},{"type":"Feature","geometry":{"type":"Point","coordinates":[12.3991313423,50.9564246614]},"properties":{"name":"Altenburger Land","cca_2":"16077"}},{"type":"Feature","geometry":{"type":"Point","coordinates":[13.297589973775182,52.59353043412648]},"properties":{"name":"Berlin Reinickendorf","cca_2":"11012"}},{"type":"Feature","geometry":{"type":"Point","coordinates":[13.278233910526929,52.49582914256866]},"properties":{"name":"Berlin Charlottenburg-Wilmersdorf","cca_2":"11004"}},{"type":"Feature","geometry":{"type":"Point","coordinates":[13.608254788876856,52.43096748087738]},"properties":{"name":"Berlin Treptow-Köpenick","cca_2":"11009"}},{"type":"Feature","geometry":{"type":"Point","coordinates":[13.43598582597858,52.587650969036396]},"properties":{"name":"Berlin Pankow","cca_2":"11003"}},{"type":"Feature","geometry":{"type":"Point","coordinates":[13.443728251277495,52.43981788062377]},"properties":{"name":"Berlin Neukölln","cca_2":"11008"}},{"type":"Feature","geometry":{"type":"Point","coordinates":[13.497925228369132,52.52351362770197]},"properties":{"name":"Berlin Lichtenberg","cca_2":"11011"}},{"type":"Feature","geometry":{"type":"Point","coordinates":[13.577285087680002,52.51556348624613]},"properties":{"name":"Berlin Marzahn-Hellersdorf","cca_2":"11010"}},{"type":"Feature","geometry":{"type":"Point","coordinates":[13.191131625907222,52.5438241203199]},"properties":{"name":"Berlin Spandau","cca_2":"11005"}},{"type":"Feature","geometry":{"type":"Point","coordinates":[13.226940342912219,52.42890213186898]},"properties":{"name":"Berlin Steglitz-Zehlendorf","cca_2":"11006"}},{"type":"Feature","geometry":{"type":"Point","coordinates":[13.366303998290286,52.52910730933761]},"properties":{"name":"Berlin Mitte","cca_2":"11001"}},{"type":"Feature","geometry":{"type":"Point","coordinates":[13.429211203841179,52.49435607512342]},"properties":{"name":"Berlin Friedrichshain-Kreuzberg","cca_2":"11002"}},{"type":"Feature","geometry":{"type":"Point","coordinates":[13.386627864696514,52.4389329206701]},"properties":{"name":"Berlin Tempelhof-Schöneberg","cca_2":"11007"}}]}