{
"type": "FeatureCollection",
"name": "dataMap",
"features": [
{ "type": "Feature", "id": 1, "properties": { "plz": "01067", "name": "Dresden", "area": 6609441.5998757631 }, "geometry": { "type": "Point", "coordinates": [ 13.72017712956854, 51.059843893166303 ] } },
{ "type": "Feature", "id": 2, "properties": { "plz": "01069", "name": "Dresden", "area": 6141597.9177091122 }, "geometry": { "type": "Point", "coordinates": [ 13.73855027361925, 51.040590821847509 ] } },
{ "type": "Feature", "id": 3, "properties": { "plz": "01097", "name": "Dresden", "area": 3038458.8199081421 }, "geometry": { "type": "Point", "coordinates": [ 13.745378396347341, 51.066770857954275 ] } },
{ "type": "Feature", "id": 4, "properties": { "plz": "01099", "name": "Dresden", "area": 53371672.442980766 }, "geometry": { "type": "Point", "coordinates": [ 13.828453448136761, 51.092495475781654 ] } },
{ "type": "Feature", "id": 5, "properties": { "plz": "01109", "name": "Dresden", "area": 28255635.237768769 }, "geometry": { "type": "Point", "coordinates": [ 13.761229408218107, 51.1207958804073 ] } },
{ "type": "Feature", "id": 6, "properties": { "plz": "01127", "name": "Dresden", "area": 3486318.0118175745 }, "geometry": { "type": "Point", "coordinates": [ 13.734201652083469, 51.08044508179141 ] } },
{ "type": "Feature", "id": 7, "properties": { "plz": "01129", "name": "Dresden", "area": 6822582.1374285221 }, "geometry": { "type": "Point", "coordinates": [ 13.727092877240409, 51.096346034381213 ] } },
{ "type": "Feature", "id": 8, "properties": { "plz": "01139", "name": "Dresden", "area": 8058260.8333899975 }, "geometry": { "type": "Point", "coordinates": [ 13.692951248608651, 51.079288614313818 ] } },
{ "type": "Feature", "id": 9, "properties": { "plz": "01157", "name": "Dresden", "area": 8550181.0516854972 }, "geometry": { "type": "Point", "coordinates": [ 13.669816060801393, 51.062385944679505 ] } },
{ "type": "Feature", "id": 10, "properties": { "plz": "01159", "name": "Dresden", "area": 4563182.9273025095 }, "geometry": { "type": "Point", "coordinates": [ 13.700184455400457, 51.043615432680255 ] } },
{ "type": "Feature", "id": 11, "properties": { "plz": "01169", "name": "Dresden", "area": 5204097.8300188482 }, "geometry": { "type": "Point", "coordinates": [ 13.671053477326, 51.037896758262775 ] } },
{ "type": "Feature", "id": 12, "properties": { "plz": "01187", "name": "Dresden", "area": 5256835.5798555613 }, "geometry": { "type": "Point", "coordinates": [ 13.703839483126954, 51.026988635691779 ] } },
{ "type": "Feature", "id": 13, "properties": { "plz": "01189", "name": "Dresden", "area": 4834960.2811717987 }, "geometry": { "type": "Point", "coordinates": [ 13.703620308679135, 51.014582080687603 ] } },
{ "type": "Feature", "id": 14, "properties": { "plz": "01217", "name": "Dresden", "area": 5895931.29264009 }, "geometry": { "type": "Point", "coordinates": [ 13.743220713779158, 51.016436787751374 ] } },
{ "type": "Feature", "id": 15, "properties": { "plz": "01219", "name": "Dresden", "area": 7511994.2849969864 }, "geometry": { "type": "Point", "coordinates": [ 13.767969301154825, 51.02274818065812 ] } },
{ "type": "Feature", "id": 16, "properties": { "plz": "01237", "name": "Dresden", "area": 3754800.0550312996 }, "geometry": { "type": "Point", "coordinates": [ 13.800996551932831, 51.01708563688252 ] } },
{ "type": "Feature", "id": 17, "properties": { "plz": "01239", "name": "Dresden", "area": 4149446.9132528305 }, "geometry": { "type": "Point", "coordinates": [ 13.788608727352111, 51.002672472006822 ] } },
{ "type": "Feature", "id": 18, "properties": { "plz": "01257", "name": "Dresden", "area": 9222578.5103578568 }, "geometry": { "type": "Point", "coordinates": [ 13.815090622646169, 50.996323505229221 ] } },
{ "type": "Feature", "id": 19, "properties": { "plz": "01259", "name": "Dresden", "area": 10118793.447403073 }, "geometry": { "type": "Point", "coordinates": [ 13.849645506867331, 50.9961960672195 ] } },
{ "type": "Feature", "id": 20, "properties": { "plz": "01277", "name": "Dresden", "area": 6088832.503068924 }, "geometry": { "type": "Point", "coordinates": [ 13.80222527434767, 51.035767149371843 ] } },
{ "type": "Feature", "id": 21, "properties": { "plz": "01279", "name": "Dresden", "area": 3795171.3543481827 }, "geometry": { "type": "Point", "coordinates": [ 13.83082631186455, 51.025571816069757 ] } },
{ "type": "Feature", "id": 22, "properties": { "plz": "01307", "name": "Dresden", "area": 2747658.5866830349 }, "geometry": { "type": "Point", "coordinates": [ 13.769953247330555, 51.0527295299662 ] } },
{ "type": "Feature", "id": 23, "properties": { "plz": "01309", "name": "Dresden", "area": 4432350.0225248337 }, "geometry": { "type": "Point", "coordinates": [ 13.79023448328542, 51.050357345814419 ] } },
{ "type": "Feature", "id": 24, "properties": { "plz": "01324", "name": "Dresden", "area": 6763258.3272271156 }, "geometry": { "type": "Point", "coordinates": [ 13.856492450140461, 51.067204661012745 ] } },
{ "type": "Feature", "id": 25, "properties": { "plz": "01326", "name": "Dresden", "area": 16822907.614042282 }, "geometry": { "type": "Point", "coordinates": [ 13.857972287824742, 51.027606142358557 ] } },
{ "type": "Feature", "id": 26, "properties": { "plz": "01445", "name": "Radebeul", "area": 27007798.964205503 }, "geometry": { "type": "Point", "coordinates": [ 13.644890450531546, 51.112756662907806 ] } },
{ "type": "Feature", "id": 27, "properties": { "plz": "01454", "name": "Radeberg", "area": 61951122.02718401 }, "geometry": { "type": "Point", "coordinates": [ 13.917212635128495, 51.131740219717507 ] } },
{ "type": "Feature", "id": 28, "properties": { "plz": "01458", "name": "Ottendorf-Okrilla", "area": 35032388.488764107 }, "geometry": { "type": "Point", "coordinates": [ 13.844421165422025, 51.180233376165283 ] } },
{ "type": "Feature", "id": 29, "properties": { "plz": "01462", "name": "Cossebaude", "area": 31551010.907289207 }, "geometry": { "type": "Point", "coordinates": [ 13.623278699529285, 51.066353858079594 ] } },
{ "type": "Feature", "id": 30, "properties": { "plz": "01465", "name": "Langebrueck", "area": 12168086.98494184 }, "geometry": { "type": "Point", "coordinates": [ 13.851937561217465, 51.137745119346619 ] } },
{ "type": "Feature", "id": 31, "properties": { "plz": "01468", "name": "Reichenberg", "area": 70214958.798814595 }, "geometry": { "type": "Point", "coordinates": [ 13.683370556623078, 51.16543272404774 ] } },
{ "type": "Feature", "id": 32, "properties": { "plz": "01471", "name": "Radeburg", "area": 34254213.031078577 }, "geometry": { "type": "Point", "coordinates": [ 13.733708796744914, 51.20739032688364 ] } },
{ "type": "Feature", "id": 33, "properties": { "plz": "01474", "name": "Schoenfeld-Weissig", "area": 42442275.198361516 }, "geometry": { "type": "Point", "coordinates": [ 13.910457677253081, 51.041705421453059 ] } },
{ "type": "Feature", "id": 34, "properties": { "plz": "01477", "name": "Arnsdorf b. Dresden", "area": 34061458.16035533 }, "geometry": { "type": "Point", "coordinates": [ 13.987722054193382, 51.091679728248465 ] } },
{ "type": "Feature", "id": 35, "properties": { "plz": "01478", "name": "Weixdorf", "area": 16353137.994454384 }, "geometry": { "type": "Point", "coordinates": [ 13.785583431691311, 51.154765280194084 ] } },
{ "type": "Feature", "id": 36, "properties": { "plz": "01558", "name": "Grossenhain", "area": 37350271.01024425 }, "geometry": { "type": "Point", "coordinates": [ 13.531457629445434, 51.290436123282589 ] } },
{ "type": "Feature", "id": 37, "properties": { "plz": "01561", "name": "Grossenhain", "area": 413293134.69588846 }, "geometry": { "type": "Point", "coordinates": [ 13.634202441671951, 51.297803024232792 ] } },
{ "type": "Feature", "id": 38, "properties": { "plz": "01587", "name": "Riesa", "area": 9209052.9114818573 }, "geometry": { "type": "Point", "coordinates": [ 13.271797533795709, 51.30268421215694 ] } },
{ "type": "Feature", "id": 39, "properties": { "plz": "01589", "name": "Riesa", "area": 15329730.304609299 }, "geometry": { "type": "Point", "coordinates": [ 13.328831189113657, 51.293403036268771 ] } },
{ "type": "Feature", "id": 40, "properties": { "plz": "01591", "name": "Riesa", "area": 15186665.404492497 }, "geometry": { "type": "Point", "coordinates": [ 13.246239002365465, 51.318421393277042 ] } },
{ "type": "Feature", "id": 41, "properties": { "plz": "01594", "name": "Riesa", "area": 86762261.074391603 }, "geometry": { "type": "Point", "coordinates": [ 13.294337886871494, 51.259387794621631 ] } },
{ "type": "Feature", "id": 42, "properties": { "plz": "01609", "name": "Groeditz", "area": 83603102.044882536 }, "geometry": { "type": "Point", "coordinates": [ 13.428911138591843, 51.392768750896977 ] } },
{ "type": "Feature", "id": 43, "properties": { "plz": "01612", "name": "Nuenchritz", "area": 44584826.108603597 }, "geometry": { "type": "Point", "coordinates": [ 13.410927786903237, 51.29915597136479 ] } },
{ "type": "Feature", "id": 44, "properties": { "plz": "01616", "name": "Strehla", "area": 31017754.662346601 }, "geometry": { "type": "Point", "coordinates": [ 13.232892575921516, 51.363074026272258 ] } },
{ "type": "Feature", "id": 45, "properties": { "plz": "01619", "name": "Zeithain", "area": 84019625.531158805 }, "geometry": { "type": "Point", "coordinates": [ 13.316133465413589, 51.369771981253649 ] } },
{ "type": "Feature", "id": 46, "properties": { "plz": "01623", "name": "Lommatzsch", "area": 139825941.59621233 }, "geometry": { "type": "Point", "coordinates": [ 13.298629985289407, 51.164761640925441 ] } },
{ "type": "Feature", "id": 47, "properties": { "plz": "01640", "name": "Coswig", "area": 24977938.789369106 }, "geometry": { "type": "Point", "coordinates": [ 13.578296937661573, 51.138335317872716 ] } },
{ "type": "Feature", "id": 48, "properties": { "plz": "01662", "name": "Meissen", "area": 31154712.006712437 }, "geometry": { "type": "Point", "coordinates": [ 13.482356187635736, 51.162335706294122 ] } },
{ "type": "Feature", "id": 49, "properties": { "plz": "01665", "name": "Meissen", "area": 192508867.30970496 }, "geometry": { "type": "Point", "coordinates": [ 13.45044039742011, 51.135797908295558 ] } },
{ "type": "Feature", "id": 50, "properties": { "plz": "01683", "name": "Nossen", "area": 63848811.19289875 }, "geometry": { "type": "Point", "coordinates": [ 13.337779162120921, 51.062939542178952 ] } },
{ "type": "Feature", "id": 51, "properties": { "plz": "01689", "name": "Weinboehla", "area": 51894791.393543601 }, "geometry": { "type": "Point", "coordinates": [ 13.5622381044275, 51.183540530042663 ] } },
{ "type": "Feature", "id": 52, "properties": { "plz": "01705", "name": "Freital", "area": 40857031.339741707 }, "geometry": { "type": "Point", "coordinates": [ 13.636529377018308, 50.998447183922757 ] } },
{ "type": "Feature", "id": 53, "properties": { "plz": "01723", "name": "Wilsdruff", "area": 80820840.452129602 }, "geometry": { "type": "Point", "coordinates": [ 13.511861607610186, 51.029086391681759 ] } },
{ "type": "Feature", "id": 54, "properties": { "plz": "01728", "name": "Bannewitz", "area": 28827539.323860168 }, "geometry": { "type": "Point", "coordinates": [ 13.726786437949777, 50.982201135111353 ] } },
{ "type": "Feature", "id": 55, "properties": { "plz": "01731", "name": "Kreischa", "area": 28166341.744240284 }, "geometry": { "type": "Point", "coordinates": [ 13.758835629118147, 50.948475807575377 ] } },
{ "type": "Feature", "id": 56, "properties": { "plz": "01734", "name": "Rabenau", "area": 29688303.21504426 }, "geometry": { "type": "Point", "coordinates": [ 13.669358095283284, 50.949320160054228 ] } },
{ "type": "Feature", "id": 57, "properties": { "plz": "01737", "name": "Tharandt", "area": 71700216.598369598 }, "geometry": { "type": "Point", "coordinates": [ 13.521358262213379, 50.967057774626689 ] } },
{ "type": "Feature", "id": 58, "properties": { "plz": "01738", "name": "Colmnitz", "area": 29286728.034126043 }, "geometry": { "type": "Point", "coordinates": [ 13.517041970479848, 50.913980404350788 ] } },
{ "type": "Feature", "id": 59, "properties": { "plz": "01744", "name": "Dippoldiswalde", "area": 62715870.325320721 }, "geometry": { "type": "Point", "coordinates": [ 13.653774616337573, 50.891854778412281 ] } },
{ "type": "Feature", "id": 60, "properties": { "plz": "01762", "name": "Schmiedeberg", "area": 70306080.152023971 }, "geometry": { "type": "Point", "coordinates": [ 13.617339812038917, 50.815962966376503 ] } },
{ "type": "Feature", "id": 61, "properties": { "plz": "01768", "name": "Glashuette", "area": 109978775.52356964 }, "geometry": { "type": "Point", "coordinates": [ 13.764211428329572, 50.855815791140643 ] } },
{ "type": "Feature", "id": 62, "properties": { "plz": "01773", "name": "Altenberg", "area": 72079717.708293438 }, "geometry": { "type": "Point", "coordinates": [ 13.723163490615171, 50.770889526085149 ] } },
{ "type": "Feature", "id": 63, "properties": { "plz": "01774", "name": "Hoeckendorf", "area": 62621731.238965273 }, "geometry": { "type": "Point", "coordinates": [ 13.567762563727234, 50.890780279171103 ] } },
{ "type": "Feature", "id": 64, "properties": { "plz": "01776", "name": "Hermsdorf\/Erzgeb.", "area": 25761593.225913525 }, "geometry": { "type": "Point", "coordinates": [ 13.645231986951423, 50.7592968200344 ] } },
{ "type": "Feature", "id": 65, "properties": { "plz": "01778", "name": "Geising", "area": 55171589.213106632 }, "geometry": { "type": "Point", "coordinates": [ 13.842791818701407, 50.764887919116248 ] } },
{ "type": "Feature", "id": 66, "properties": { "plz": "01796", "name": "Pirna", "area": 78888926.840841115 }, "geometry": { "type": "Point", "coordinates": [ 13.971155780539739, 50.936739198965107 ] } },
{ "type": "Feature", "id": 67, "properties": { "plz": "01809", "name": "Heidenau", "area": 60986464.503390491 }, "geometry": { "type": "Point", "coordinates": [ 13.845004918428559, 50.945929605140293 ] } },
{ "type": "Feature", "id": 68, "properties": { "plz": "01814", "name": "Bad Schandau", "area": 80882945.683707476 }, "geometry": { "type": "Point", "coordinates": [ 14.19875387314389, 50.900584981024984 ] } },
{ "type": "Feature", "id": 69, "properties": { "plz": "01816", "name": "Bad Gottleuba", "area": 45466922.654516697 }, "geometry": { "type": "Point", "coordinates": [ 13.963376396967982, 50.83059634031985 ] } },
{ "type": "Feature", "id": 70, "properties": { "plz": "01819", "name": "Berggiesshuebel", "area": 32495478.36048007 }, "geometry": { "type": "Point", "coordinates": [ 13.980724156063108, 50.880694139538079 ] } },
{ "type": "Feature", "id": 71, "properties": { "plz": "01824", "name": "Koenigstein\/Saechs.Schw.", "area": 115978234.77561593 }, "geometry": { "type": "Point", "coordinates": [ 14.084377329834593, 50.879489419750271 ] } },
{ "type": "Feature", "id": 72, "properties": { "plz": "01825", "name": "Liebstadt", "area": 91498794.85009408 }, "geometry": { "type": "Point", "coordinates": [ 13.877291658107639, 50.860598356241908 ] } },
{ "type": "Feature", "id": 73, "properties": { "plz": "01827", "name": "Graupa", "area": 14801613.552843928 }, "geometry": { "type": "Point", "coordinates": [ 13.92031425240094, 50.992201546236267 ] } },
{ "type": "Feature", "id": 74, "properties": { "plz": "01829", "name": "Stadt Wehlen", "area": 10781951.185625076 }, "geometry": { "type": "Point", "coordinates": [ 14.01172968448906, 50.961196314517764 ] } },
{ "type": "Feature", "id": 75, "properties": { "plz": "01833", "name": "Stolpen", "area": 103240839.02647722 }, "geometry": { "type": "Point", "coordinates": [ 14.060079625584942, 51.039906975081792 ] } },
{ "type": "Feature", "id": 76, "properties": { "plz": "01844", "name": "Neustadt i. Sa.", "area": 87800666.178088248 }, "geometry": { "type": "Point", "coordinates": [ 14.228182263638876, 51.035363954341513 ] } },
{ "type": "Feature", "id": 77, "properties": { "plz": "01847", "name": "Lohmen", "area": 24929847.702118278 }, "geometry": { "type": "Point", "coordinates": [ 14.017432924062813, 50.985468456196891 ] } },
{ "type": "Feature", "id": 78, "properties": { "plz": "01848", "name": "Hohnstein", "area": 67722010.604462922 }, "geometry": { "type": "Point", "coordinates": [ 14.142060849472642, 50.979000295301724 ] } },
{ "type": "Feature", "id": 79, "properties": { "plz": "01855", "name": "Sebnitz", "area": 89269122.367389441 }, "geometry": { "type": "Point", "coordinates": [ 14.296212500530642, 50.938226326494686 ] } },
{ "type": "Feature", "id": 80, "properties": { "plz": "01877", "name": "Bischofswerda", "area": 109854129.01484621 }, "geometry": { "type": "Point", "coordinates": [ 14.203633447879934, 51.125190920253097 ] } },
{ "type": "Feature", "id": 81, "properties": { "plz": "01896", "name": "Pulsnitz", "area": 43259848.870252907 }, "geometry": { "type": "Point", "coordinates": [ 14.008116715075209, 51.182846238572061 ] } },
{ "type": "Feature", "id": 82, "properties": { "plz": "01900", "name": "Grossroehrsdorf", "area": 39327530.701939821 }, "geometry": { "type": "Point", "coordinates": [ 14.032320715747064, 51.145189890548153 ] } },
{ "type": "Feature", "id": 83, "properties": { "plz": "01904", "name": "Neukirch\/Lausitz", "area": 39587129.172342539 }, "geometry": { "type": "Point", "coordinates": [ 14.327046436322439, 51.080817328302423 ] } },
{ "type": "Feature", "id": 84, "properties": { "plz": "01906", "name": "Bischofswerda", "area": 31748593.523210049 }, "geometry": { "type": "Point", "coordinates": [ 14.207307548310224, 51.185851107671461 ] } },
{ "type": "Feature", "id": 85, "properties": { "plz": "01909", "name": "Grossharthau", "area": 49323187.500500202 }, "geometry": { "type": "Point", "coordinates": [ 14.081257101014561, 51.108901451034434 ] } },
{ "type": "Feature", "id": 86, "properties": { "plz": "01917", "name": "Kamenz", "area": 17639676.280039072 }, "geometry": { "type": "Point", "coordinates": [ 14.109524496213156, 51.271248975417642 ] } },
{ "type": "Feature", "id": 87, "properties": { "plz": "01920", "name": "Deutschbaselitz", "area": 249508492.30735588 }, "geometry": { "type": "Point", "coordinates": [ 14.156192085135819, 51.265419032248616 ] } },
{ "type": "Feature", "id": 88, "properties": { "plz": "01936", "name": "Koenigsbrueck", "area": 340077903.16817367 }, "geometry": { "type": "Point", "coordinates": [ 13.937533666959485, 51.292120370181749 ] } },
{ "type": "Feature", "id": 89, "properties": { "plz": "01945", "name": "Ruhland", "area": 202550309.58272004 }, "geometry": { "type": "Point", "coordinates": [ 13.879794465457989, 51.424856456158608 ] } },
{ "type": "Feature", "id": 90, "properties": { "plz": "01968", "name": "Senftenberg", "area": 122380233.74000955 }, "geometry": { "type": "Point", "coordinates": [ 14.024880001686713, 51.521182011775053 ] } },
{ "type": "Feature", "id": 91, "properties": { "plz": "01979", "name": "Lauchhammer", "area": 88356085.215875775 }, "geometry": { "type": "Point", "coordinates": [ 13.756048587514799, 51.503853052042317 ] } },
{ "type": "Feature", "id": 92, "properties": { "plz": "01983", "name": "Grossraeschen", "area": 67817792.285264134 }, "geometry": { "type": "Point", "coordinates": [ 14.056142184502249, 51.584508278688993 ] } },
{ "type": "Feature", "id": 93, "properties": { "plz": "01987", "name": "Schwarzheide N.L.", "area": 33402040.937853694 }, "geometry": { "type": "Point", "coordinates": [ 13.855762996710309, 51.482705691860126 ] } },
{ "type": "Feature", "id": 94, "properties": { "plz": "01990", "name": "Ortrand", "area": 19974653.338920116 }, "geometry": { "type": "Point", "coordinates": [ 13.733414386627725, 51.384038020141737 ] } },
{ "type": "Feature", "id": 95, "properties": { "plz": "01993", "name": "Schipkau", "area": 13836680.489404082 }, "geometry": { "type": "Point", "coordinates": [ 13.889050071865043, 51.511074537364898 ] } },
{ "type": "Feature", "id": 96, "properties": { "plz": "01994", "name": "Annahuette", "area": 51608341.862862647 }, "geometry": { "type": "Point", "coordinates": [ 13.924003156103172, 51.5808448253322 ] } },
{ "type": "Feature", "id": 97, "properties": { "plz": "01996", "name": "Hosena", "area": 10682432.893449783 }, "geometry": { "type": "Point", "coordinates": [ 14.033878589804116, 51.456752139581816 ] } },
{ "type": "Feature", "id": 98, "properties": { "plz": "01998", "name": "Klettwitz", "area": 16097473.775331974 }, "geometry": { "type": "Point", "coordinates": [ 13.8847394497043, 51.543086392227394 ] } },
{ "type": "Feature", "id": 99, "properties": { "plz": "02625", "name": "Bautzen", "area": 41200238.97526598 }, "geometry": { "type": "Point", "coordinates": [ 14.437478041004008, 51.187416187441116 ] } },
{ "type": "Feature", "id": 100, "properties": { "plz": "02627", "name": "Weissenberg", "area": 194980992.92809105 }, "geometry": { "type": "Point", "coordinates": [ 14.575858242054398, 51.167284957712177 ] } },
{ "type": "Feature", "id": 101, "properties": { "plz": "02633", "name": "Goeda", "area": 70400321.420188427 }, "geometry": { "type": "Point", "coordinates": [ 14.315877137635246, 51.1649640433182 ] } },
{ "type": "Feature", "id": 102, "properties": { "plz": "02681", "name": "Wilthen", "area": 39259759.93101716 }, "geometry": { "type": "Point", "coordinates": [ 14.418730294720163, 51.090533050288116 ] } },
{ "type": "Feature", "id": 103, "properties": { "plz": "02689", "name": "Sohland a. d. Spree", "area": 37241560.074275315 }, "geometry": { "type": "Point", "coordinates": [ 14.433722971095703, 51.046716197467916 ] } },
{ "type": "Feature", "id": 104, "properties": { "plz": "02692", "name": "Obergurig", "area": 44082931.127620697 }, "geometry": { "type": "Point", "coordinates": [ 14.421410989022892, 51.13472500475693 ] } },
{ "type": "Feature", "id": 105, "properties": { "plz": "02694", "name": "Grossdubrau", "area": 143880101.22644615 }, "geometry": { "type": "Point", "coordinates": [ 14.537646311857591, 51.261971076727285 ] } },
{ "type": "Feature", "id": 106, "properties": { "plz": "02699", "name": "Koenigswartha", "area": 127218634.31948233 }, "geometry": { "type": "Point", "coordinates": [ 14.352954467593724, 51.29074365453647 ] } },
{ "type": "Feature", "id": 107, "properties": { "plz": "02708", "name": "Loebau", "area": 164392483.79613757 }, "geometry": { "type": "Point", "coordinates": [ 14.669829557248944, 51.090329507344471 ] } },
{ "type": "Feature", "id": 108, "properties": { "plz": "02727", "name": "Neugersdorf", "area": 5514966.5153669119 }, "geometry": { "type": "Point", "coordinates": [ 14.613440942152208, 50.974196633884674 ] } },
{ "type": "Feature", "id": 109, "properties": { "plz": "02730", "name": "Ebersbach", "area": 22058305.099439621 }, "geometry": { "type": "Point", "coordinates": [ 14.610030798962166, 51.014287720853588 ] } },
{ "type": "Feature", "id": 110, "properties": { "plz": "02733", "name": "Cunewalde", "area": 27609210.660122871 }, "geometry": { "type": "Point", "coordinates": [ 14.528010089237181, 51.099057388765807 ] } },
{ "type": "Feature", "id": 111, "properties": { "plz": "02736", "name": "Oppach", "area": 13686365.06899333 }, "geometry": { "type": "Point", "coordinates": [ 14.518472959579507, 51.066183736204465 ] } },
{ "type": "Feature", "id": 112, "properties": { "plz": "02739", "name": "Eibau", "area": 19408609.801342487 }, "geometry": { "type": "Point", "coordinates": [ 14.654681488858344, 50.992913116159748 ] } },
{ "type": "Feature", "id": 113, "properties": { "plz": "02742", "name": "Neusalza-Spremberg", "area": 24279217.220754623 }, "geometry": { "type": "Point", "coordinates": [ 14.54612761791126, 51.031123628380797 ] } },
{ "type": "Feature", "id": 114, "properties": { "plz": "02744", "name": "Oberoderwitz", "area": 17340286.354744434 }, "geometry": { "type": "Point", "coordinates": [ 14.700612779955986, 50.969717305833306 ] } },
{ "type": "Feature", "id": 115, "properties": { "plz": "02747", "name": "Herrnhut", "area": 73785972.668258622 }, "geometry": { "type": "Point", "coordinates": [ 14.763699397431228, 51.010915385753705 ] } },
{ "type": "Feature", "id": 116, "properties": { "plz": "02748", "name": "Bernstadt", "area": 51907309.18465142 }, "geometry": { "type": "Point", "coordinates": [ 14.830236747696125, 51.047639507904698 ] } },
{ "type": "Feature", "id": 117, "properties": { "plz": "02763", "name": "Zittau", "area": 91338758.333732814 }, "geometry": { "type": "Point", "coordinates": [ 14.786012859022767, 50.909415363330673 ] } },
{ "type": "Feature", "id": 118, "properties": { "plz": "02779", "name": "Grossschoenau", "area": 28162170.011917949 }, "geometry": { "type": "Point", "coordinates": [ 14.681914547736248, 50.902234874486325 ] } },
{ "type": "Feature", "id": 119, "properties": { "plz": "02782", "name": "Seifhennersdorf", "area": 18464956.224076748 }, "geometry": { "type": "Point", "coordinates": [ 14.607108844502957, 50.936683920266425 ] } },
{ "type": "Feature", "id": 120, "properties": { "plz": "02785", "name": "Olbersdorf", "area": 15105816.698318005 }, "geometry": { "type": "Point", "coordinates": [ 14.764886101015758, 50.872930340857259 ] } },
{ "type": "Feature", "id": 121, "properties": { "plz": "02788", "name": "Hirschfelde", "area": 32216437.929437637 }, "geometry": { "type": "Point", "coordinates": [ 14.870831884122534, 50.963408010543645 ] } },
{ "type": "Feature", "id": 122, "properties": { "plz": "02791", "name": "Niederoderwitz", "area": 19646485.040462017 }, "geometry": { "type": "Point", "coordinates": [ 14.746331888524656, 50.955618404505714 ] } },
{ "type": "Feature", "id": 123, "properties": { "plz": "02794", "name": "Leutersdorf", "area": 16761704.004841805 }, "geometry": { "type": "Point", "coordinates": [ 14.661774697432213, 50.946738703735072 ] } },
{ "type": "Feature", "id": 124, "properties": { "plz": "02796", "name": "Jonsdorf", "area": 9411836.8197785616 }, "geometry": { "type": "Point", "coordinates": [ 14.693059695851282, 50.851960299293857 ] } },
{ "type": "Feature", "id": 125, "properties": { "plz": "02797", "name": "Oybin", "area": 17239576.767793417 }, "geometry": { "type": "Point", "coordinates": [ 14.755803288135708, 50.839011486451945 ] } },
{ "type": "Feature", "id": 126, "properties": { "plz": "02799", "name": "Waltersdorf", "area": 7930973.4125007689 }, "geometry": { "type": "Point", "coordinates": [ 14.649403592366649, 50.865878759795727 ] } },
{ "type": "Feature", "id": 127, "properties": { "plz": "02826", "name": "Goerlitz", "area": 4507637.3122315407 }, "geometry": { "type": "Point", "coordinates": [ 14.98512292746854, 51.147063789759187 ] } },
{ "type": "Feature", "id": 128, "properties": { "plz": "02827", "name": "Goerlitz", "area": 12479633.815721154 }, "geometry": { "type": "Point", "coordinates": [ 14.965765548593806, 51.131368234217618 ] } },
{ "type": "Feature", "id": 129, "properties": { "plz": "02828", "name": "Goerlitz", "area": 7015782.004986763 }, "geometry": { "type": "Point", "coordinates": [ 14.983434615315963, 51.16922972982254 ] } },
{ "type": "Feature", "id": 130, "properties": { "plz": "02829", "name": "Goerlitz", "area": 191574267.02936506 }, "geometry": { "type": "Point", "coordinates": [ 14.932010314521088, 51.178634821862133 ] } },
{ "type": "Feature", "id": 131, "properties": { "plz": "02894", "name": "Reichenbach\/O.L.", "area": 103188569.48073888 }, "geometry": { "type": "Point", "coordinates": [ 14.774008388891749, 51.161278261594603 ] } },
{ "type": "Feature", "id": 132, "properties": { "plz": "02899", "name": "Goerlitz", "area": 56938176.613816261 }, "geometry": { "type": "Point", "coordinates": [ 14.915494276843697, 51.042135658308062 ] } },
{ "type": "Feature", "id": 133, "properties": { "plz": "02906", "name": "Niesky", "area": 311730600.4390012 }, "geometry": { "type": "Point", "coordinates": [ 14.718611719412086, 51.297070736516964 ] } },
{ "type": "Feature", "id": 134, "properties": { "plz": "02923", "name": "Niesky", "area": 140664803.58541751 }, "geometry": { "type": "Point", "coordinates": [ 14.888167840551505, 51.302700161405191 ] } },
{ "type": "Feature", "id": 135, "properties": { "plz": "02929", "name": "Rothenburg\/O.L.", "area": 67573746.790973544 }, "geometry": { "type": "Point", "coordinates": [ 14.955358044261379, 51.358312659013023 ] } },
{ "type": "Feature", "id": 136, "properties": { "plz": "02943", "name": "Weisswasser", "area": 174854408.4723227 }, "geometry": { "type": "Point", "coordinates": [ 14.623606535682368, 51.444578965083586 ] } },
{ "type": "Feature", "id": 137, "properties": { "plz": "02953", "name": "Bad Muskau", "area": 38453142.151926756 }, "geometry": { "type": "Point", "coordinates": [ 14.667661695834605, 51.5462540507583 ] } },
{ "type": "Feature", "id": 138, "properties": { "plz": "02956", "name": "Rietschen", "area": 84260599.956524134 }, "geometry": { "type": "Point", "coordinates": [ 14.808339161318742, 51.410753821655604 ] } },
{ "type": "Feature", "id": 139, "properties": { "plz": "02957", "name": "Krauschwitz", "area": 142896806.97565842 }, "geometry": { "type": "Point", "coordinates": [ 14.798241735812296, 51.474006593149696 ] } },
{ "type": "Feature", "id": 140, "properties": { "plz": "02959", "name": "Schleife", "area": 83183152.690774262 }, "geometry": { "type": "Point", "coordinates": [ 14.526377846432096, 51.522499184381452 ] } },
{ "type": "Feature", "id": 141, "properties": { "plz": "02977", "name": "Hoyerswerda", "area": 87170035.926618218 }, "geometry": { "type": "Point", "coordinates": [ 14.211552277210698, 51.423889759030196 ] } },
{ "type": "Feature", "id": 142, "properties": { "plz": "02979", "name": "Hoyerswerda", "area": 104813074.7232486 }, "geometry": { "type": "Point", "coordinates": [ 14.416915594710259, 51.482016066046747 ] } },
{ "type": "Feature", "id": 143, "properties": { "plz": "02991", "name": "Lauta", "area": 178544509.55753243 }, "geometry": { "type": "Point", "coordinates": [ 14.197414054989141, 51.483277974148933 ] } },
{ "type": "Feature", "id": 144, "properties": { "plz": "02994", "name": "Bernsdorf", "area": 45081425.713624477 }, "geometry": { "type": "Point", "coordinates": [ 14.081071970844855, 51.384421909707186 ] } },
{ "type": "Feature", "id": 145, "properties": { "plz": "02997", "name": "Wittichenau", "area": 64870395.876831651 }, "geometry": { "type": "Point", "coordinates": [ 14.244859338368764, 51.379300816605266 ] } },
{ "type": "Feature", "id": 146, "properties": { "plz": "02999", "name": "Lohsa", "area": 190936794.77697581 }, "geometry": { "type": "Point", "coordinates": [ 14.432582613531682, 51.380398247445605 ] } },
{ "type": "Feature", "id": 147, "properties": { "plz": "03042", "name": "Cottbus", "area": 44230849.467574239 }, "geometry": { "type": "Point", "coordinates": [ 14.418108224074727, 51.776181136400901 ] } },
{ "type": "Feature", "id": 148, "properties": { "plz": "03044", "name": "Cottbus", "area": 11357680.010128796 }, "geometry": { "type": "Point", "coordinates": [ 14.345144778062952, 51.784869878212611 ] } },
{ "type": "Feature", "id": 149, "properties": { "plz": "03046", "name": "Cottbus", "area": 11759576.643261194 }, "geometry": { "type": "Point", "coordinates": [ 14.308085270786169, 51.764134424522055 ] } },
{ "type": "Feature", "id": 150, "properties": { "plz": "03048", "name": "Cottbus", "area": 9247681.1815464497 }, "geometry": { "type": "Point", "coordinates": [ 14.308526990905511, 51.737863148606323 ] } },
{ "type": "Feature", "id": 151, "properties": { "plz": "03050", "name": "Cottbus", "area": 4716176.1340119839 }, "geometry": { "type": "Point", "coordinates": [ 14.34057407575988, 51.737038953973496 ] } },
{ "type": "Feature", "id": 152, "properties": { "plz": "03051", "name": "Cottbus", "area": 13190463.631430626 }, "geometry": { "type": "Point", "coordinates": [ 14.417459749400015, 51.721294288038251 ] } },
{ "type": "Feature", "id": 153, "properties": { "plz": "03052", "name": "Cottbus", "area": 11350917.221309662 }, "geometry": { "type": "Point", "coordinates": [ 14.424463869871621, 51.762744926293649 ] } },
{ "type": "Feature", "id": 154, "properties": { "plz": "03053", "name": "Cottbus", "area": 5260725.0195652843 }, "geometry": { "type": "Point", "coordinates": [ 14.38724006335287, 51.802543289710854 ] } },
{ "type": "Feature", "id": 155, "properties": { "plz": "03054", "name": "Cottbus", "area": 17412769.953054905 }, "geometry": { "type": "Point", "coordinates": [ 14.353527606336883, 51.830638600513332 ] } },
{ "type": "Feature", "id": 156, "properties": { "plz": "03055", "name": "Cottbus", "area": 20982764.244593859 }, "geometry": { "type": "Point", "coordinates": [ 14.31273353885897, 51.814276654957276 ] } },
{ "type": "Feature", "id": 157, "properties": { "plz": "03058", "name": "Gallinchen", "area": 167786220.86865604 }, "geometry": { "type": "Point", "coordinates": [ 14.39135028570484, 51.695781440954114 ] } },
{ "type": "Feature", "id": 158, "properties": { "plz": "03096", "name": "Burg\/ Spreewald", "area": 127404584.56498742 }, "geometry": { "type": "Point", "coordinates": [ 14.200986074285041, 51.839666532061493 ] } },
{ "type": "Feature", "id": 159, "properties": { "plz": "03099", "name": "Kolkwitz", "area": 105138179.70052388 }, "geometry": { "type": "Point", "coordinates": [ 14.203386102751391, 51.754673903643635 ] } },
{ "type": "Feature", "id": 160, "properties": { "plz": "03103", "name": "Neupetershain", "area": 57865015.12650013 }, "geometry": { "type": "Point", "coordinates": [ 14.123275442797478, 51.625350736792569 ] } },
{ "type": "Feature", "id": 161, "properties": { "plz": "03116", "name": "Drebkau", "area": 79694940.89370811 }, "geometry": { "type": "Point", "coordinates": [ 14.21408396476634, 51.646960656001383 ] } },
{ "type": "Feature", "id": 162, "properties": { "plz": "03119", "name": "Welzow", "area": 10261231.202254295 }, "geometry": { "type": "Point", "coordinates": [ 14.178726931889098, 51.576596210315387 ] } },
{ "type": "Feature", "id": 163, "properties": { "plz": "03130", "name": "Spremberg", "area": 322377394.98581141 }, "geometry": { "type": "Point", "coordinates": [ 14.427491537642043, 51.59181961006346 ] } },
{ "type": "Feature", "id": 164, "properties": { "plz": "03139", "name": "Schwarze Pumpe", "area": 11253860.052072048 }, "geometry": { "type": "Point", "coordinates": [ 14.321867622986927, 51.531131684681775 ] } },
{ "type": "Feature", "id": 165, "properties": { "plz": "03149", "name": "Forst\/ Lausitz", "area": 194623815.65826619 }, "geometry": { "type": "Point", "coordinates": [ 14.609314973847646, 51.725572657753439 ] } },
{ "type": "Feature", "id": 166, "properties": { "plz": "03159", "name": "Doebern", "area": 94942581.776520193 }, "geometry": { "type": "Point", "coordinates": [ 14.660231678877807, 51.629708598565472 ] } },
{ "type": "Feature", "id": 167, "properties": { "plz": "03172", "name": "Guben", "area": 275354717.2397576 }, "geometry": { "type": "Point", "coordinates": [ 14.574926490636598, 51.958611427826071 ] } },
{ "type": "Feature", "id": 168, "properties": { "plz": "03185", "name": "Peitz", "area": 206269869.23393828 }, "geometry": { "type": "Point", "coordinates": [ 14.414809374085877, 51.877586596344038 ] } },
{ "type": "Feature", "id": 169, "properties": { "plz": "03197", "name": "Jaenschwalde", "area": 67602849.496329963 }, "geometry": { "type": "Point", "coordinates": [ 14.530232353467886, 51.879175863252044 ] } },
{ "type": "Feature", "id": 170, "properties": { "plz": "03205", "name": "Calau", "area": 275057141.47267342 }, "geometry": { "type": "Point", "coordinates": [ 13.949090946284057, 51.727400597245563 ] } },
{ "type": "Feature", "id": 171, "properties": { "plz": "03222", "name": "Luebbenau\/ Spreewald", "area": 111426965.13114178 }, "geometry": { "type": "Point", "coordinates": [ 13.927938084396095, 51.853734010516774 ] } },
{ "type": "Feature", "id": 172, "properties": { "plz": "03226", "name": "Vetschau", "area": 86394044.585829943 }, "geometry": { "type": "Point", "coordinates": [ 14.051511332026653, 51.815198717211203 ] } },
{ "type": "Feature", "id": 173, "properties": { "plz": "03229", "name": "Altdoebern", "area": 94610981.776196599 }, "geometry": { "type": "Point", "coordinates": [ 14.058062704074596, 51.665818995366926 ] } },
{ "type": "Feature", "id": 174, "properties": { "plz": "03238", "name": "Finsterwalde", "area": 331766631.19456762 }, "geometry": { "type": "Point", "coordinates": [ 13.718562011145487, 51.600843344751851 ] } },
{ "type": "Feature", "id": 175, "properties": { "plz": "03246", "name": "Crinitz", "area": 61101869.010836601 }, "geometry": { "type": "Point", "coordinates": [ 13.779055136562691, 51.732445268475331 ] } },
{ "type": "Feature", "id": 176, "properties": { "plz": "03249", "name": "Sonnewalde", "area": 77081311.084410191 }, "geometry": { "type": "Point", "coordinates": [ 13.665438562437101, 51.707710476907685 ] } },
{ "type": "Feature", "id": 177, "properties": { "plz": "03253", "name": "Doberlug-Kirchhain", "area": 217707463.38700175 }, "geometry": { "type": "Point", "coordinates": [ 13.500052457423898, 51.640783470915849 ] } },
{ "type": "Feature", "id": 178, "properties": { "plz": "04103", "name": "Leipzig", "area": 5058119.1088719368 }, "geometry": { "type": "Point", "coordinates": [ 12.393885952497715, 51.334377835470377 ] } },
{ "type": "Feature", "id": 179, "properties": { "plz": "04105", "name": "Leipzig", "area": 6047648.0589036942 }, "geometry": { "type": "Point", "coordinates": [ 12.360731829537842, 51.353134411462989 ] } },
{ "type": "Feature", "id": 180, "properties": { "plz": "04107", "name": "Leipzig", "area": 1515443.283130765 }, "geometry": { "type": "Point", "coordinates": [ 12.372699108837333, 51.33131191940253 ] } },
{ "type": "Feature", "id": 181, "properties": { "plz": "04109", "name": "Leipzig", "area": 2225800.0946786404 }, "geometry": { "type": "Point", "coordinates": [ 12.365509058142809, 51.339295299801158 ] } },
{ "type": "Feature", "id": 182, "properties": { "plz": "04129", "name": "Leipzig", "area": 5151083.8248057365 }, "geometry": { "type": "Point", "coordinates": [ 12.389155641953153, 51.373136648089591 ] } },
{ "type": "Feature", "id": 183, "properties": { "plz": "04155", "name": "Leipzig", "area": 1764528.8693504333 }, "geometry": { "type": "Point", "coordinates": [ 12.363577770322571, 51.363303139512354 ] } },
{ "type": "Feature", "id": 184, "properties": { "plz": "04157", "name": "Leipzig", "area": 2256993.0770757198 }, "geometry": { "type": "Point", "coordinates": [ 12.370526960807599, 51.376100939441237 ] } },
{ "type": "Feature", "id": 185, "properties": { "plz": "04159", "name": "Leipzig", "area": 10625425.332932234 }, "geometry": { "type": "Point", "coordinates": [ 12.331031036509284, 51.374687457454044 ] } },
{ "type": "Feature", "id": 186, "properties": { "plz": "04177", "name": "Leipzig", "area": 3583002.4197092056 }, "geometry": { "type": "Point", "coordinates": [ 12.334254360442451, 51.340409480714101 ] } },
{ "type": "Feature", "id": 187, "properties": { "plz": "04179", "name": "Leipzig", "area": 8178082.6293566525 }, "geometry": { "type": "Point", "coordinates": [ 12.314171050894293, 51.346997365183185 ] } },
{ "type": "Feature", "id": 188, "properties": { "plz": "04205", "name": "Leipzig", "area": 7665321.4273691177 }, "geometry": { "type": "Point", "coordinates": [ 12.275091714570577, 51.328461645530389 ] } },
{ "type": "Feature", "id": 189, "properties": { "plz": "04207", "name": "Leipzig", "area": 8496347.873504281 }, "geometry": { "type": "Point", "coordinates": [ 12.278883107966308, 51.310487224776246 ] } },
{ "type": "Feature", "id": 190, "properties": { "plz": "04209", "name": "Leipzig", "area": 722724.5489256382 }, "geometry": { "type": "Point", "coordinates": [ 12.30161052, 51.32488122 ] } },
{ "type": "Feature", "id": 191, "properties": { "plz": "04229", "name": "Leipzig", "area": 6014698.0881490707 }, "geometry": { "type": "Point", "coordinates": [ 12.338829322009797, 51.321084089364518 ] } },
{ "type": "Feature", "id": 192, "properties": { "plz": "04249", "name": "Leipzig", "area": 24248298.35519433 }, "geometry": { "type": "Point", "coordinates": [ 12.312634080258672, 51.287188872705329 ] } },
{ "type": "Feature", "id": 193, "properties": { "plz": "04275", "name": "Leipzig", "area": 1929580.8957953453 }, "geometry": { "type": "Point", "coordinates": [ 12.373799021125125, 51.323253477622615 ] } },
{ "type": "Feature", "id": 194, "properties": { "plz": "04277", "name": "Leipzig", "area": 9343978.7573135495 }, "geometry": { "type": "Point", "coordinates": [ 12.374818755015065, 51.308505595126761 ] } },
{ "type": "Feature", "id": 195, "properties": { "plz": "04279", "name": "Leipzig", "area": 4773448.9057559967 }, "geometry": { "type": "Point", "coordinates": [ 12.401223821730932, 51.294169365743549 ] } },
{ "type": "Feature", "id": 196, "properties": { "plz": "04289", "name": "Leipzig", "area": 6328532.4211172462 }, "geometry": { "type": "Point", "coordinates": [ 12.430798684240868, 51.300719636008552 ] } },
{ "type": "Feature", "id": 197, "properties": { "plz": "04299", "name": "Leipzig", "area": 4451060.942284584 }, "geometry": { "type": "Point", "coordinates": [ 12.427599984937713, 51.319731593075147 ] } },
{ "type": "Feature", "id": 198, "properties": { "plz": "04315", "name": "Leipzig", "area": 1415234.8053908348 }, "geometry": { "type": "Point", "coordinates": [ 12.409265854541037, 51.346361622101554 ] } },
{ "type": "Feature", "id": 199, "properties": { "plz": "04317", "name": "Leipzig", "area": 1555368.0973844528 }, "geometry": { "type": "Point", "coordinates": [ 12.408432164709787, 51.332739844180487 ] } },
{ "type": "Feature", "id": 200, "properties": { "plz": "04318", "name": "Leipzig", "area": 5626318.6439418793 }, "geometry": { "type": "Point", "coordinates": [ 12.43288984614772, 51.342697202656645 ] } },
{ "type": "Feature", "id": 201, "properties": { "plz": "04328", "name": "Leipzig", "area": 812879.16846251488 }, "geometry": { "type": "Point", "coordinates": [ 12.455771391251082, 51.347367688151635 ] } },
{ "type": "Feature", "id": 202, "properties": { "plz": "04329", "name": "Leipzig", "area": 5609960.7461612225 }, "geometry": { "type": "Point", "coordinates": [ 12.463529016722591, 51.360328059263274 ] } },
{ "type": "Feature", "id": 203, "properties": { "plz": "04347", "name": "Leipzig", "area": 6083065.4052364826 }, "geometry": { "type": "Point", "coordinates": [ 12.41951560002901, 51.361437669408154 ] } },
{ "type": "Feature", "id": 204, "properties": { "plz": "04349", "name": "Leipzig", "area": 15510816.472904012 }, "geometry": { "type": "Point", "coordinates": [ 12.449280909456665, 51.389782566241863 ] } },
{ "type": "Feature", "id": 205, "properties": { "plz": "04356", "name": "Leipzig", "area": 19458821.385549068 }, "geometry": { "type": "Point", "coordinates": [ 12.439474706222292, 51.421303294852272 ] } },
{ "type": "Feature", "id": 206, "properties": { "plz": "04357", "name": "Leipzig", "area": 5087424.6870207787 }, "geometry": { "type": "Point", "coordinates": [ 12.410283219275316, 51.382749714483239 ] } },
{ "type": "Feature", "id": 207, "properties": { "plz": "04416", "name": "Markkleeberg", "area": 33555755.988651633 }, "geometry": { "type": "Point", "coordinates": [ 12.390121055985858, 51.269327317121515 ] } },
{ "type": "Feature", "id": 208, "properties": { "plz": "04420", "name": "Markranstaedt", "area": 65814571.362036467 }, "geometry": { "type": "Point", "coordinates": [ 12.222250977383688, 51.291666950482842 ] } },
{ "type": "Feature", "id": 209, "properties": { "plz": "04425", "name": "Taucha", "area": 31316570.674335197 }, "geometry": { "type": "Point", "coordinates": [ 12.510915952281136, 51.393175804903017 ] } },
{ "type": "Feature", "id": 210, "properties": { "plz": "04430", "name": "Boehlitz-Ehrenberg", "area": 29010217.654481262 }, "geometry": { "type": "Point", "coordinates": [ 12.241302923467815, 51.357837947574943 ] } },
{ "type": "Feature", "id": 211, "properties": { "plz": "04435", "name": "Schkeuditz", "area": 29151741.039684296 }, "geometry": { "type": "Point", "coordinates": [ 12.218613051305747, 51.402088102343257 ] } },
{ "type": "Feature", "id": 212, "properties": { "plz": "04439", "name": "Engelsdorf", "area": 23493952.520238996 }, "geometry": { "type": "Point", "coordinates": [ 12.506059317142292, 51.333011161523807 ] } },
{ "type": "Feature", "id": 213, "properties": { "plz": "04442", "name": "Zwenkau", "area": 53647515.116630793 }, "geometry": { "type": "Point", "coordinates": [ 12.307391835015798, 51.221144392232674 ] } },
{ "type": "Feature", "id": 214, "properties": { "plz": "04445", "name": "Markkleeberg", "area": 8776979.5204852819 }, "geometry": { "type": "Point", "coordinates": [ 12.470497328629962, 51.279637074651639 ] } },
{ "type": "Feature", "id": 215, "properties": { "plz": "04448", "name": "Wiederitzsch", "area": 12902708.109637737 }, "geometry": { "type": "Point", "coordinates": [ 12.378847578778503, 51.408435356764542 ] } },
{ "type": "Feature", "id": 216, "properties": { "plz": "04451", "name": "Borsdorf", "area": 16948763.462822914 }, "geometry": { "type": "Point", "coordinates": [ 12.542774053091309, 51.355823869625894 ] } },
{ "type": "Feature", "id": 217, "properties": { "plz": "04454", "name": "Holzhausen", "area": 12832365.662875772 }, "geometry": { "type": "Point", "coordinates": [ 12.478015462549148, 51.305973744897116 ] } },
{ "type": "Feature", "id": 218, "properties": { "plz": "04457", "name": "Moelkau", "area": 4506118.1385338306 }, "geometry": { "type": "Point", "coordinates": [ 12.453828396904989, 51.329637640659605 ] } },
{ "type": "Feature", "id": 219, "properties": { "plz": "04460", "name": "Zwenkau", "area": 25446084.76478982 }, "geometry": { "type": "Point", "coordinates": [ 12.224576175212707, 51.22040561649451 ] } },
{ "type": "Feature", "id": 220, "properties": { "plz": "04463", "name": "Grosspoesna", "area": 36663077.585706234 }, "geometry": { "type": "Point", "coordinates": [ 12.478576748698311, 51.255755795172469 ] } },
{ "type": "Feature", "id": 221, "properties": { "plz": "04466", "name": "Lindenthal", "area": 11777280.031504631 }, "geometry": { "type": "Point", "coordinates": [ 12.333300404402216, 51.404188372420428 ] } },
{ "type": "Feature", "id": 222, "properties": { "plz": "04469", "name": "Luetzschema-Stahmeln", "area": 12802986.781992912 }, "geometry": { "type": "Point", "coordinates": [ 12.283164954089303, 51.389496734142796 ] } },
{ "type": "Feature", "id": 223, "properties": { "plz": "04509", "name": "Delitzsch", "area": 362033939.53245491 }, "geometry": { "type": "Point", "coordinates": [ 12.356188419726751, 51.505489713765343 ] } },
{ "type": "Feature", "id": 224, "properties": { "plz": "04519", "name": "Rackwitz", "area": 21313201.750898838 }, "geometry": { "type": "Point", "coordinates": [ 12.388865297827262, 51.440851215118983 ] } },
{ "type": "Feature", "id": 225, "properties": { "plz": "04523", "name": "Pegau", "area": 30182731.233801842 }, "geometry": { "type": "Point", "coordinates": [ 12.24300552365027, 51.166028478398708 ] } },
{ "type": "Feature", "id": 226, "properties": { "plz": "04539", "name": "Groitzsch", "area": 77821339.403743505 }, "geometry": { "type": "Point", "coordinates": [ 12.315920313532095, 51.13151476511463 ] } },
{ "type": "Feature", "id": 227, "properties": { "plz": "04552", "name": "Borna", "area": 85117352.287320614 }, "geometry": { "type": "Point", "coordinates": [ 12.486791272966139, 51.128832196442865 ] } },
{ "type": "Feature", "id": 228, "properties": { "plz": "04564", "name": "Boehlen", "area": 24564697.824298382 }, "geometry": { "type": "Point", "coordinates": [ 12.387667720222652, 51.211318033357891 ] } },
{ "type": "Feature", "id": 229, "properties": { "plz": "04565", "name": "Regis-Breitingen", "area": 10478626.449231148 }, "geometry": { "type": "Point", "coordinates": [ 12.429701539129507, 51.08983013063397 ] } },
{ "type": "Feature", "id": 230, "properties": { "plz": "04567", "name": "Kitzscher", "area": 45257528.016376019 }, "geometry": { "type": "Point", "coordinates": [ 12.561552751605275, 51.171176827871143 ] } },
{ "type": "Feature", "id": 231, "properties": { "plz": "04571", "name": "Roetha", "area": 16650213.851664692 }, "geometry": { "type": "Point", "coordinates": [ 12.427430341110515, 51.203799605063644 ] } },
{ "type": "Feature", "id": 232, "properties": { "plz": "04574", "name": "Neukieritzsch", "area": 14878250.705211163 }, "geometry": { "type": "Point", "coordinates": [ 12.412010489464157, 51.114950482732056 ] } },
{ "type": "Feature", "id": 233, "properties": { "plz": "04575", "name": "Neukieritzsch", "area": 25149014.825924873 }, "geometry": { "type": "Point", "coordinates": [ 12.380977488449625, 51.163500222383078 ] } },
{ "type": "Feature", "id": 234, "properties": { "plz": "04579", "name": "Espenhain", "area": 32053795.538394779 }, "geometry": { "type": "Point", "coordinates": [ 12.497729957259473, 51.210282241709074 ] } },
{ "type": "Feature", "id": 235, "properties": { "plz": "04600", "name": "Altenburg", "area": 47220667.781576753 }, "geometry": { "type": "Point", "coordinates": [ 12.438008834857465, 50.981126596028439 ] } },
{ "type": "Feature", "id": 236, "properties": { "plz": "04603", "name": "Altenburg", "area": 100590264.56829843 }, "geometry": { "type": "Point", "coordinates": [ 12.47417687508236, 50.957858784408209 ] } },
{ "type": "Feature", "id": 237, "properties": { "plz": "04610", "name": "Meuselwitz", "area": 59083811.520613551 }, "geometry": { "type": "Point", "coordinates": [ 12.347293190878915, 51.056660151944683 ] } },
{ "type": "Feature", "id": 238, "properties": { "plz": "04613", "name": "Lucka", "area": 13289684.026080966 }, "geometry": { "type": "Point", "coordinates": [ 12.333787608900471, 51.087585069676507 ] } },
{ "type": "Feature", "id": 239, "properties": { "plz": "04617", "name": "Altenburg", "area": 80275323.091227651 }, "geometry": { "type": "Point", "coordinates": [ 12.330618372484071, 51.001577514087657 ] } },
{ "type": "Feature", "id": 240, "properties": { "plz": "04618", "name": "Langenleuba-Niederhain", "area": 78573941.31567955 }, "geometry": { "type": "Point", "coordinates": [ 12.578353560304134, 50.950071922121886 ] } },
{ "type": "Feature", "id": 241, "properties": { "plz": "04626", "name": "Schmoelln", "area": 165713410.90764928 }, "geometry": { "type": "Point", "coordinates": [ 12.309789000364091, 50.899266442495424 ] } },
{ "type": "Feature", "id": 242, "properties": { "plz": "04639", "name": "Goessnitz", "area": 30656097.58545208 }, "geometry": { "type": "Point", "coordinates": [ 12.422040383289222, 50.872521685166767 ] } },
{ "type": "Feature", "id": 243, "properties": { "plz": "04643", "name": "Geithain", "area": 95040671.160969317 }, "geometry": { "type": "Point", "coordinates": [ 12.651832284627252, 51.082937401138423 ] } },
{ "type": "Feature", "id": 244, "properties": { "plz": "04651", "name": "Bad Lausick", "area": 54691993.689483643 }, "geometry": { "type": "Point", "coordinates": [ 12.677284492863619, 51.146908714071451 ] } },
{ "type": "Feature", "id": 245, "properties": { "plz": "04654", "name": "Frohburg", "area": 51235536.102958947 }, "geometry": { "type": "Point", "coordinates": [ 12.558572605693485, 51.062840380480807 ] } },
{ "type": "Feature", "id": 246, "properties": { "plz": "04655", "name": "Kohren-Sahlis", "area": 25871020.349286795 }, "geometry": { "type": "Point", "coordinates": [ 12.592077080934203, 51.013614171837439 ] } },
{ "type": "Feature", "id": 247, "properties": { "plz": "04657", "name": "Langensteinbach", "area": 64218006.975614071 }, "geometry": { "type": "Point", "coordinates": [ 12.673890926046875, 50.989364770131196 ] } },
{ "type": "Feature", "id": 248, "properties": { "plz": "04668", "name": "Grimma", "area": 223902082.32820988 }, "geometry": { "type": "Point", "coordinates": [ 12.735940989330055, 51.215142562765912 ] } },
{ "type": "Feature", "id": 249, "properties": { "plz": "04680", "name": "Colditz", "area": 70323714.665658712 }, "geometry": { "type": "Point", "coordinates": [ 12.812172031201476, 51.125488162628265 ] } },
{ "type": "Feature", "id": 250, "properties": { "plz": "04683", "name": "Naunhof", "area": 63573661.097673893 }, "geometry": { "type": "Point", "coordinates": [ 12.577273310726074, 51.269960837769283 ] } },
{ "type": "Feature", "id": 251, "properties": { "plz": "04685", "name": "Nerchau", "area": 38002409.797011256 }, "geometry": { "type": "Point", "coordinates": [ 12.819618244131473, 51.27800466614169 ] } },
{ "type": "Feature", "id": 252, "properties": { "plz": "04687", "name": "Trebsen\/Mulde", "area": 35968196.774945736 }, "geometry": { "type": "Point", "coordinates": [ 12.73341236436101, 51.289774096365733 ] } },
{ "type": "Feature", "id": 253, "properties": { "plz": "04688", "name": "Mutschen", "area": 28780505.106472135 }, "geometry": { "type": "Point", "coordinates": [ 12.886629202247857, 51.261354583379429 ] } },
{ "type": "Feature", "id": 254, "properties": { "plz": "04703", "name": "Leisnig", "area": 93602798.399612844 }, "geometry": { "type": "Point", "coordinates": [ 12.938277693263432, 51.168252039928127 ] } },
{ "type": "Feature", "id": 255, "properties": { "plz": "04720", "name": "Doebeln", "area": 183567309.82464015 }, "geometry": { "type": "Point", "coordinates": [ 13.118045385571913, 51.141657724119241 ] } },
{ "type": "Feature", "id": 256, "properties": { "plz": "04736", "name": "Waldheim", "area": 23806552.891061842 }, "geometry": { "type": "Point", "coordinates": [ 13.014136930520623, 51.066846701594805 ] } },
{ "type": "Feature", "id": 257, "properties": { "plz": "04741", "name": "Rosswein", "area": 44359728.167838931 }, "geometry": { "type": "Point", "coordinates": [ 13.179067047832076, 51.079781912896458 ] } },
{ "type": "Feature", "id": 258, "properties": { "plz": "04746", "name": "Hartha", "area": 38631427.713723421 }, "geometry": { "type": "Point", "coordinates": [ 12.991021396141528, 51.113750641673725 ] } },
{ "type": "Feature", "id": 259, "properties": { "plz": "04749", "name": "Ostrau", "area": 42533046.14014864 }, "geometry": { "type": "Point", "coordinates": [ 13.154960202679909, 51.202167680387909 ] } },
{ "type": "Feature", "id": 260, "properties": { "plz": "04758", "name": "Oschatz", "area": 189780768.02911901 }, "geometry": { "type": "Point", "coordinates": [ 13.121471359973468, 51.345093121893626 ] } },
{ "type": "Feature", "id": 261, "properties": { "plz": "04769", "name": "Muegeln", "area": 92893780.810570478 }, "geometry": { "type": "Point", "coordinates": [ 13.074912741442375, 51.242311816780706 ] } },
{ "type": "Feature", "id": 262, "properties": { "plz": "04774", "name": "Dahlen", "area": 104582483.13993692 }, "geometry": { "type": "Point", "coordinates": [ 12.985531850651022, 51.367626126868373 ] } },
{ "type": "Feature", "id": 263, "properties": { "plz": "04779", "name": "Wermsdorf", "area": 72524593.399606228 }, "geometry": { "type": "Point", "coordinates": [ 12.963700531619793, 51.288327804246087 ] } },
{ "type": "Feature", "id": 264, "properties": { "plz": "04808", "name": "Wurzen", "area": 230975247.9293946 }, "geometry": { "type": "Point", "coordinates": [ 12.808280048373666, 51.389896485391262 ] } },
{ "type": "Feature", "id": 265, "properties": { "plz": "04821", "name": "Brandis", "area": 26766496.395432949 }, "geometry": { "type": "Point", "coordinates": [ 12.626965152961418, 51.327315158189293 ] } },
{ "type": "Feature", "id": 266, "properties": { "plz": "04824", "name": "Beucha", "area": 8653741.2936503887 }, "geometry": { "type": "Point", "coordinates": [ 12.568338679764315, 51.319980899914022 ] } },
{ "type": "Feature", "id": 267, "properties": { "plz": "04827", "name": "Machern", "area": 38978368.368050933 }, "geometry": { "type": "Point", "coordinates": [ 12.627003714854933, 51.377020345174614 ] } },
{ "type": "Feature", "id": 268, "properties": { "plz": "04828", "name": "Bennewitz", "area": 46652578.921201348 }, "geometry": { "type": "Point", "coordinates": [ 12.703715881986856, 51.348041524147732 ] } },
{ "type": "Feature", "id": 269, "properties": { "plz": "04838", "name": "Eilenburg", "area": 387204408.5080303 }, "geometry": { "type": "Point", "coordinates": [ 12.684868389211033, 51.495436042995927 ] } },
{ "type": "Feature", "id": 270, "properties": { "plz": "04849", "name": "Bad Dueben", "area": 120375556.35720754 }, "geometry": { "type": "Point", "coordinates": [ 12.64682930790411, 51.597490750410813 ] } },
{ "type": "Feature", "id": 271, "properties": { "plz": "04860", "name": "Torgau", "area": 131818405.06877494 }, "geometry": { "type": "Point", "coordinates": [ 12.967008770101206, 51.539637684421457 ] } },
{ "type": "Feature", "id": 272, "properties": { "plz": "04874", "name": "Belgern", "area": 82872578.308435678 }, "geometry": { "type": "Point", "coordinates": [ 13.122662244932904, 51.459562932179878 ] } },
{ "type": "Feature", "id": 273, "properties": { "plz": "04880", "name": "Dommitzsch", "area": 151691872.12286162 }, "geometry": { "type": "Point", "coordinates": [ 12.850720119749694, 51.618518023489287 ] } },
{ "type": "Feature", "id": 274, "properties": { "plz": "04886", "name": "Torgau", "area": 153673009.57474852 }, "geometry": { "type": "Point", "coordinates": [ 13.091106347717504, 51.573623270822722 ] } },
{ "type": "Feature", "id": 275, "properties": { "plz": "04889", "name": "Schildau", "area": 74404274.931745291 }, "geometry": { "type": "Point", "coordinates": [ 12.968200775207668, 51.455660842169522 ] } },
{ "type": "Feature", "id": 276, "properties": { "plz": "04895", "name": "Falkenberg\/ Elster", "area": 197251285.45513248 }, "geometry": { "type": "Point", "coordinates": [ 13.206186489324331, 51.586358252758401 ] } },
{ "type": "Feature", "id": 277, "properties": { "plz": "04910", "name": "Elsterwerda", "area": 50718043.349196434 }, "geometry": { "type": "Point", "coordinates": [ 13.514903036778717, 51.469638959943509 ] } },
{ "type": "Feature", "id": 278, "properties": { "plz": "04916", "name": "Herzberg\/ Elster", "area": 270750136.48517007 }, "geometry": { "type": "Point", "coordinates": [ 13.245150526678808, 51.759380465743632 ] } },
{ "type": "Feature", "id": 279, "properties": { "plz": "04924", "name": "Bad Liebenwerda", "area": 219030622.37449831 }, "geometry": { "type": "Point", "coordinates": [ 13.37828180672717, 51.5169074588078 ] } },
{ "type": "Feature", "id": 280, "properties": { "plz": "04928", "name": "Plessa", "area": 66201916.191831917 }, "geometry": { "type": "Point", "coordinates": [ 13.642826534055276, 51.463290763161417 ] } },
{ "type": "Feature", "id": 281, "properties": { "plz": "04931", "name": "Bad Liebenwerda", "area": 43915788.642634392 }, "geometry": { "type": "Point", "coordinates": [ 13.250405308322541, 51.428809718487464 ] } },
{ "type": "Feature", "id": 282, "properties": { "plz": "04932", "name": "Proesen", "area": 113250919.3190062 }, "geometry": { "type": "Point", "coordinates": [ 13.566227161342562, 51.416348447759987 ] } },
{ "type": "Feature", "id": 283, "properties": { "plz": "04934", "name": "Hohenleipisch", "area": 32992904.045975745 }, "geometry": { "type": "Point", "coordinates": [ 13.56771865702615, 51.508458088356392 ] } },
{ "type": "Feature", "id": 284, "properties": { "plz": "04936", "name": "Schlieben", "area": 213542893.51541799 }, "geometry": { "type": "Point", "coordinates": [ 13.426677780508602, 51.747243723611284 ] } },
{ "type": "Feature", "id": 285, "properties": { "plz": "04938", "name": "Uebigau", "area": 43393966.854685307 }, "geometry": { "type": "Point", "coordinates": [ 13.327788674954567, 51.608621696388006 ] } },
{ "type": "Feature", "id": 286, "properties": { "plz": "06108", "name": "Halle\/ Saale", "area": 4723550.7175905704 }, "geometry": { "type": "Point", "coordinates": [ 11.965189461611223, 51.489300448355429 ] } },
{ "type": "Feature", "id": 287, "properties": { "plz": "06110", "name": "Halle\/ Saale", "area": 3576426.10769853 }, "geometry": { "type": "Point", "coordinates": [ 11.974257965648397, 51.47250654784974 ] } },
{ "type": "Feature", "id": 288, "properties": { "plz": "06112", "name": "Halle\/ Saale", "area": 5394573.3092926443 }, "geometry": { "type": "Point", "coordinates": [ 11.99694246837853, 51.481067370196918 ] } },
{ "type": "Feature", "id": 289, "properties": { "plz": "06114", "name": "Halle\/ Saale", "area": 1732030.9441456795 }, "geometry": { "type": "Point", "coordinates": [ 11.970951254479321, 51.500302602787308 ] } },
{ "type": "Feature", "id": 290, "properties": { "plz": "06116", "name": "Halle\/ Saale", "area": 21548458.171298981 }, "geometry": { "type": "Point", "coordinates": [ 12.037075153484951, 51.476910084526558 ] } },
{ "type": "Feature", "id": 291, "properties": { "plz": "06118", "name": "Halle\/ Saale", "area": 21904605.124342918 }, "geometry": { "type": "Point", "coordinates": [ 11.98843900927243, 51.520819495878747 ] } },
{ "type": "Feature", "id": 292, "properties": { "plz": "06120", "name": "Halle\/ Saale", "area": 30668441.817228556 }, "geometry": { "type": "Point", "coordinates": [ 11.903196091373658, 51.508691073874282 ] } },
{ "type": "Feature", "id": 293, "properties": { "plz": "06122", "name": "Halle\/ Saale", "area": 2206168.3959058523 }, "geometry": { "type": "Point", "coordinates": [ 11.932189074131758, 51.485931681030223 ] } },
{ "type": "Feature", "id": 294, "properties": { "plz": "06124", "name": "Halle\/ Saale", "area": 7852602.9980121255 }, "geometry": { "type": "Point", "coordinates": [ 11.934055425535613, 51.469988032497184 ] } },
{ "type": "Feature", "id": 295, "properties": { "plz": "06126", "name": "Halle\/ Saale", "area": 4363267.6940602064 }, "geometry": { "type": "Point", "coordinates": [ 11.899040134139762, 51.478939241768266 ] } },
{ "type": "Feature", "id": 296, "properties": { "plz": "06128", "name": "Halle\/ Saale", "area": 5843997.9694092274 }, "geometry": { "type": "Point", "coordinates": [ 11.951198414404603, 51.451432287235463 ] } },
{ "type": "Feature", "id": 297, "properties": { "plz": "06130", "name": "Halle\/ Saale", "area": 6930996.1031653881 }, "geometry": { "type": "Point", "coordinates": [ 11.991854313634734, 51.454435222246367 ] } },
{ "type": "Feature", "id": 298, "properties": { "plz": "06132", "name": "Halle\/ Saale", "area": 21820087.414720535 }, "geometry": { "type": "Point", "coordinates": [ 11.989128222105188, 51.426178313601724 ] } },
{ "type": "Feature", "id": 299, "properties": { "plz": "06179", "name": "Teutschenthal", "area": 152622744.75736952 }, "geometry": { "type": "Point", "coordinates": [ 11.81309164725184, 51.463593904679321 ] } },
{ "type": "Feature", "id": 300, "properties": { "plz": "06184", "name": "Dieskau", "area": 99192658.058214113 }, "geometry": { "type": "Point", "coordinates": [ 12.102123069478461, 51.420263181091343 ] } },
{ "type": "Feature", "id": 301, "properties": { "plz": "06188", "name": "Landsberg", "area": 144574256.6291793 }, "geometry": { "type": "Point", "coordinates": [ 12.106131867261468, 51.52931797539744 ] } },
{ "type": "Feature", "id": 302, "properties": { "plz": "06193", "name": "Loebejuen", "area": 124459158.18893099 }, "geometry": { "type": "Point", "coordinates": [ 11.949811153419635, 51.60244854200949 ] } },
{ "type": "Feature", "id": 303, "properties": { "plz": "06198", "name": "Wettin", "area": 120326486.45824075 }, "geometry": { "type": "Point", "coordinates": [ 11.812291489755047, 51.571714721591484 ] } },
{ "type": "Feature", "id": 304, "properties": { "plz": "06217", "name": "Merseburg\/ Saale", "area": 52573623.646439016 }, "geometry": { "type": "Point", "coordinates": [ 11.977605531399735, 51.351748215026298 ] } },
{ "type": "Feature", "id": 305, "properties": { "plz": "06231", "name": "Bad Duerrenberg", "area": 71908584.379493594 }, "geometry": { "type": "Point", "coordinates": [ 12.098286135073149, 51.303798303035194 ] } },
{ "type": "Feature", "id": 306, "properties": { "plz": "06237", "name": "Leuna", "area": 22906543.50878948 }, "geometry": { "type": "Point", "coordinates": [ 12.013087249276376, 51.307009227789081 ] } },
{ "type": "Feature", "id": 307, "properties": { "plz": "06242", "name": "Braunsbedra", "area": 64594068.93650651 }, "geometry": { "type": "Point", "coordinates": [ 11.890901825045784, 51.289610039479477 ] } },
{ "type": "Feature", "id": 308, "properties": { "plz": "06246", "name": "Bad Lauchstaedt", "area": 73485770.461785316 }, "geometry": { "type": "Point", "coordinates": [ 11.873137940928013, 51.381535211720781 ] } },
{ "type": "Feature", "id": 309, "properties": { "plz": "06249", "name": "Muecheln\/ Geiseltal", "area": 32442864.362640738 }, "geometry": { "type": "Point", "coordinates": [ 11.800532798216237, 51.304640510819262 ] } },
{ "type": "Feature", "id": 310, "properties": { "plz": "06254", "name": "Wallendorf\/ Luppe", "area": 48338636.727044702 }, "geometry": { "type": "Point", "coordinates": [ 12.117593845005025, 51.358330192492552 ] } },
{ "type": "Feature", "id": 311, "properties": { "plz": "06255", "name": "Schafstaedt", "area": 34667679.041701317 }, "geometry": { "type": "Point", "coordinates": [ 11.781281322563478, 51.372783354035114 ] } },
{ "type": "Feature", "id": 312, "properties": { "plz": "06258", "name": "Schkopau", "area": 12420218.444820404 }, "geometry": { "type": "Point", "coordinates": [ 11.982024378314124, 51.394888943314442 ] } },
{ "type": "Feature", "id": 313, "properties": { "plz": "06259", "name": "Frankleben", "area": 15545162.210365295 }, "geometry": { "type": "Point", "coordinates": [ 11.946335822612005, 51.313424657739283 ] } },
{ "type": "Feature", "id": 314, "properties": { "plz": "06268", "name": "Querfurt", "area": 285332310.87014711 }, "geometry": { "type": "Point", "coordinates": [ 11.607372750415221, 51.346475768297672 ] } },
{ "type": "Feature", "id": 315, "properties": { "plz": "06279", "name": "Schraplau", "area": 44712002.876820564 }, "geometry": { "type": "Point", "coordinates": [ 11.624312084689493, 51.430906813128708 ] } },
{ "type": "Feature", "id": 316, "properties": { "plz": "06295", "name": "Eisleben", "area": 192206401.3546443 }, "geometry": { "type": "Point", "coordinates": [ 11.587983459508724, 51.51900970551079 ] } },
{ "type": "Feature", "id": 317, "properties": { "plz": "06308", "name": "Benndorf", "area": 47363876.527230263 }, "geometry": { "type": "Point", "coordinates": [ 11.50247759177156, 51.582190566908515 ] } },
{ "type": "Feature", "id": 318, "properties": { "plz": "06311", "name": "Helbra", "area": 8968170.193459034 }, "geometry": { "type": "Point", "coordinates": [ 11.503742641234437, 51.554496143249963 ] } },
{ "type": "Feature", "id": 319, "properties": { "plz": "06313", "name": "Hergisdorf", "area": 22402540.902153134 }, "geometry": { "type": "Point", "coordinates": [ 11.475000755391845, 51.530564244278601 ] } },
{ "type": "Feature", "id": 320, "properties": { "plz": "06317", "name": "Roeblingen am See", "area": 67691494.818469286 }, "geometry": { "type": "Point", "coordinates": [ 11.681134648637123, 51.474561096865372 ] } },
{ "type": "Feature", "id": 321, "properties": { "plz": "06318", "name": "Wansleben am See", "area": 6199919.2050235271 }, "geometry": { "type": "Point", "coordinates": [ 11.759718034053126, 51.460093659989276 ] } },
{ "type": "Feature", "id": 322, "properties": { "plz": "06333", "name": "Hettstedt", "area": 128325701.87318817 }, "geometry": { "type": "Point", "coordinates": [ 11.464219811148828, 51.66880269639595 ] } },
{ "type": "Feature", "id": 323, "properties": { "plz": "06343", "name": "Mansfeld", "area": 54460786.779169559 }, "geometry": { "type": "Point", "coordinates": [ 11.409451760707434, 51.590656153698106 ] } },
{ "type": "Feature", "id": 324, "properties": { "plz": "06347", "name": "Gerbstedt", "area": 70235429.088420004 }, "geometry": { "type": "Point", "coordinates": [ 11.659527817604953, 51.622044757977768 ] } },
{ "type": "Feature", "id": 325, "properties": { "plz": "06348", "name": "Grossoerner", "area": 11775100.905500412 }, "geometry": { "type": "Point", "coordinates": [ 11.487450349268235, 51.617506242854532 ] } },
{ "type": "Feature", "id": 326, "properties": { "plz": "06366", "name": "Koethen\/ Anhalt", "area": 43423181.524798632 }, "geometry": { "type": "Point", "coordinates": [ 11.998639338673883, 51.758030788103333 ] } },
{ "type": "Feature", "id": 327, "properties": { "plz": "06369", "name": "Koethen\/ Anhalt", "area": 220857116.11466545 }, "geometry": { "type": "Point", "coordinates": [ 12.058791417297781, 51.691308725625454 ] } },
{ "type": "Feature", "id": 328, "properties": { "plz": "06385", "name": "Kleinzerbst", "area": 58918651.049116611 }, "geometry": { "type": "Point", "coordinates": [ 12.055802961930818, 51.84841975925535 ] } },
{ "type": "Feature", "id": 329, "properties": { "plz": "06386", "name": "Osternienburg", "area": 112489775.12141633 }, "geometry": { "type": "Point", "coordinates": [ 12.088202123931655, 51.778478716170937 ] } },
{ "type": "Feature", "id": 330, "properties": { "plz": "06388", "name": "Groebzig", "area": 48644602.145862818 }, "geometry": { "type": "Point", "coordinates": [ 11.928862488393117, 51.685443144825548 ] } },
{ "type": "Feature", "id": 331, "properties": { "plz": "06406", "name": "Bernburg\/ Saale", "area": 46981001.719078779 }, "geometry": { "type": "Point", "coordinates": [ 11.747303112859779, 51.796655499242561 ] } },
{ "type": "Feature", "id": 332, "properties": { "plz": "06408", "name": "Ilberstedt", "area": 95369905.030706286 }, "geometry": { "type": "Point", "coordinates": [ 11.779831529973045, 51.768948714470433 ] } },
{ "type": "Feature", "id": 333, "properties": { "plz": "06420", "name": "Koennern", "area": 99140454.150648534 }, "geometry": { "type": "Point", "coordinates": [ 11.792179294627227, 51.669583818914788 ] } },
{ "type": "Feature", "id": 334, "properties": { "plz": "06425", "name": "Alsleben\/ Saale", "area": 101051817.41453505 }, "geometry": { "type": "Point", "coordinates": [ 11.672999772413093, 51.709019467452585 ] } },
{ "type": "Feature", "id": 335, "properties": { "plz": "06429", "name": "Nienburg\/ Saale", "area": 69985650.956216812 }, "geometry": { "type": "Point", "coordinates": [ 11.782120643731073, 51.843211346888708 ] } },
{ "type": "Feature", "id": 336, "properties": { "plz": "06449", "name": "Aschersleben", "area": 180990798.0961473 }, "geometry": { "type": "Point", "coordinates": [ 11.456321863310256, 51.801658856811621 ] } },
{ "type": "Feature", "id": 337, "properties": { "plz": "06456", "name": "Sandersleben", "area": 48089819.858565331 }, "geometry": { "type": "Point", "coordinates": [ 11.561451243403081, 51.699991111168181 ] } },
{ "type": "Feature", "id": 338, "properties": { "plz": "06458", "name": "Hedersleben", "area": 52127822.445420265 }, "geometry": { "type": "Point", "coordinates": [ 11.284931455159676, 51.863245728302829 ] } },
{ "type": "Feature", "id": 339, "properties": { "plz": "06463", "name": "Ermsleben", "area": 70307067.716813922 }, "geometry": { "type": "Point", "coordinates": [ 11.326229931824562, 51.731583386093369 ] } },
{ "type": "Feature", "id": 340, "properties": { "plz": "06464", "name": "Frose", "area": 14952729.527092934 }, "geometry": { "type": "Point", "coordinates": [ 11.380317098650231, 51.790232952368108 ] } },
{ "type": "Feature", "id": 341, "properties": { "plz": "06466", "name": "Gatersleben", "area": 17375533.234885454 }, "geometry": { "type": "Point", "coordinates": [ 11.296770105946859, 51.816957074484002 ] } },
{ "type": "Feature", "id": 342, "properties": { "plz": "06467", "name": "Hoym", "area": 19014887.735362053 }, "geometry": { "type": "Point", "coordinates": [ 11.311834722746855, 51.784873573517267 ] } },
{ "type": "Feature", "id": 343, "properties": { "plz": "06469", "name": "Nachterstedt", "area": 12821162.353744745 }, "geometry": { "type": "Point", "coordinates": [ 11.373391962373246, 51.815940336724154 ] } },
{ "type": "Feature", "id": 344, "properties": { "plz": "06484", "name": "Quedlinburg", "area": 121532988.16173482 }, "geometry": { "type": "Point", "coordinates": [ 11.153216656433212, 51.804591140630855 ] } },
{ "type": "Feature", "id": 345, "properties": { "plz": "06493", "name": "Ballenstedt", "area": 180581612.55149257 }, "geometry": { "type": "Point", "coordinates": [ 11.173280854927405, 51.661787388360949 ] } },
{ "type": "Feature", "id": 346, "properties": { "plz": "06502", "name": "Thale\/ Harz", "area": 56318907.445699215 }, "geometry": { "type": "Point", "coordinates": [ 11.046267819827769, 51.751764079022102 ] } },
{ "type": "Feature", "id": 347, "properties": { "plz": "06507", "name": "Gernrode", "area": 145990675.94548488 }, "geometry": { "type": "Point", "coordinates": [ 11.067834096424891, 51.691445608946808 ] } },
{ "type": "Feature", "id": 348, "properties": { "plz": "06526", "name": "Sangerhausen", "area": 35443487.061422825 }, "geometry": { "type": "Point", "coordinates": [ 11.292836985129162, 51.473880415862077 ] } },
{ "type": "Feature", "id": 349, "properties": { "plz": "06528", "name": "Wallhausen", "area": 272559180.98521328 }, "geometry": { "type": "Point", "coordinates": [ 11.288703830580554, 51.490910993641073 ] } },
{ "type": "Feature", "id": 350, "properties": { "plz": "06536", "name": "Rossla", "area": 132620640.60827446 }, "geometry": { "type": "Point", "coordinates": [ 11.072001119899937, 51.505191815845485 ] } },
{ "type": "Feature", "id": 351, "properties": { "plz": "06537", "name": "Kelbra\/ Kyffhaeuser", "area": 39640181.885772794 }, "geometry": { "type": "Point", "coordinates": [ 11.094936720522607, 51.432383614738868 ] } },
{ "type": "Feature", "id": 352, "properties": { "plz": "06542", "name": "Allstedt", "area": 98118180.438569307 }, "geometry": { "type": "Point", "coordinates": [ 11.417014187306121, 51.410425656601923 ] } },
{ "type": "Feature", "id": 353, "properties": { "plz": "06543", "name": "Wippra", "area": 171109130.45142341 }, "geometry": { "type": "Point", "coordinates": [ 11.288819794644692, 51.621455685683493 ] } },
{ "type": "Feature", "id": 354, "properties": { "plz": "06547", "name": "Stolberg\/ Harz", "area": 86222587.38980031 }, "geometry": { "type": "Point", "coordinates": [ 10.975615863264744, 51.584076679316397 ] } },
{ "type": "Feature", "id": 355, "properties": { "plz": "06548", "name": "Rottleberode", "area": 36173115.103492737 }, "geometry": { "type": "Point", "coordinates": [ 10.987331581078815, 51.51919543463076 ] } },
{ "type": "Feature", "id": 356, "properties": { "plz": "06556", "name": "Artern\/ Unstrut", "area": 125402893.52715492 }, "geometry": { "type": "Point", "coordinates": [ 11.292070074094397, 51.36298415654727 ] } },
{ "type": "Feature", "id": 357, "properties": { "plz": "06567", "name": "Bad Frankenhausen\/ Kyffh.", "area": 135665636.12559509 }, "geometry": { "type": "Point", "coordinates": [ 11.087842511856119, 51.365106167016641 ] } },
{ "type": "Feature", "id": 358, "properties": { "plz": "06571", "name": "Rossleben", "area": 78891066.539582729 }, "geometry": { "type": "Point", "coordinates": [ 11.386156692875771, 51.293983697544348 ] } },
{ "type": "Feature", "id": 359, "properties": { "plz": "06577", "name": "Heldrungen", "area": 72939303.98431921 }, "geometry": { "type": "Point", "coordinates": [ 11.239525708398817, 51.281018581121145 ] } },
{ "type": "Feature", "id": 360, "properties": { "plz": "06578", "name": "Oldisleben", "area": 63637662.798719049 }, "geometry": { "type": "Point", "coordinates": [ 11.130720880169708, 51.300201028130587 ] } },
{ "type": "Feature", "id": 361, "properties": { "plz": "06618", "name": "Naumburg\/ Saale", "area": 183961579.04947799 }, "geometry": { "type": "Point", "coordinates": [ 11.825289905414614, 51.128240418309503 ] } },
{ "type": "Feature", "id": 362, "properties": { "plz": "06628", "name": "Bad Koesen", "area": 78477697.954748571 }, "geometry": { "type": "Point", "coordinates": [ 11.693390814180274, 51.129349749521801 ] } },
{ "type": "Feature", "id": 363, "properties": { "plz": "06632", "name": "Freyburg\/ Unstrut", "area": 98140060.642951012 }, "geometry": { "type": "Point", "coordinates": [ 11.76497059139821, 51.235755882482415 ] } },
{ "type": "Feature", "id": 364, "properties": { "plz": "06636", "name": "Laucha\/ Unstrut", "area": 44321127.173930049 }, "geometry": { "type": "Point", "coordinates": [ 11.658047307802757, 51.226927094196199 ] } },
{ "type": "Feature", "id": 365, "properties": { "plz": "06638", "name": "Karsdorf", "area": 18847594.908815861 }, "geometry": { "type": "Point", "coordinates": [ 11.638283802812571, 51.276337444615365 ] } },
{ "type": "Feature", "id": 366, "properties": { "plz": "06642", "name": "Nebra\/ Unstrut", "area": 79328357.771010518 }, "geometry": { "type": "Point", "coordinates": [ 11.526559260775544, 51.260857080781129 ] } },
{ "type": "Feature", "id": 367, "properties": { "plz": "06647", "name": "Bad Bibra", "area": 123179101.75540113 }, "geometry": { "type": "Point", "coordinates": [ 11.54478863918577, 51.195464789362802 ] } },
{ "type": "Feature", "id": 368, "properties": { "plz": "06648", "name": "Eckartsberga", "area": 47639518.610390186 }, "geometry": { "type": "Point", "coordinates": [ 11.526835986537918, 51.133199309992882 ] } },
{ "type": "Feature", "id": 369, "properties": { "plz": "06667", "name": "Weissenfels", "area": 133057990.65597215 }, "geometry": { "type": "Point", "coordinates": [ 11.940916234212439, 51.196352088143271 ] } },
{ "type": "Feature", "id": 370, "properties": { "plz": "06679", "name": "Hohenmoelsen", "area": 92117356.40608263 }, "geometry": { "type": "Point", "coordinates": [ 12.113683191609013, 51.170134166535568 ] } },
{ "type": "Feature", "id": 371, "properties": { "plz": "06682", "name": "Teuchern", "area": 60655848.409816958 }, "geometry": { "type": "Point", "coordinates": [ 12.024508815902632, 51.128307947829875 ] } },
{ "type": "Feature", "id": 372, "properties": { "plz": "06686", "name": "Luetzen", "area": 77598113.923833132 }, "geometry": { "type": "Point", "coordinates": [ 12.123364889824352, 51.233343446202305 ] } },
{ "type": "Feature", "id": 373, "properties": { "plz": "06688", "name": "Grosskorbetha", "area": 25403384.697733164 }, "geometry": { "type": "Point", "coordinates": [ 12.023216393447807, 51.259907503486986 ] } },
{ "type": "Feature", "id": 374, "properties": { "plz": "06712", "name": "Zeitz", "area": 174570435.4265362 }, "geometry": { "type": "Point", "coordinates": [ 12.133988665243303, 51.032564129708994 ] } },
{ "type": "Feature", "id": 375, "properties": { "plz": "06721", "name": "Osterfeld", "area": 40483367.998906374 }, "geometry": { "type": "Point", "coordinates": [ 11.958578289643693, 51.073329038362274 ] } },
{ "type": "Feature", "id": 376, "properties": { "plz": "06722", "name": "Droyssig", "area": 35089352.147400379 }, "geometry": { "type": "Point", "coordinates": [ 12.015788812306599, 51.024792799222091 ] } },
{ "type": "Feature", "id": 377, "properties": { "plz": "06724", "name": "Kayna", "area": 42897320.593435884 }, "geometry": { "type": "Point", "coordinates": [ 12.244099990732003, 50.996399707091548 ] } },
{ "type": "Feature", "id": 378, "properties": { "plz": "06725", "name": "Profen", "area": 13084471.157433212 }, "geometry": { "type": "Point", "coordinates": [ 12.1954541576994, 51.127530942355641 ] } },
{ "type": "Feature", "id": 379, "properties": { "plz": "06727", "name": "Theissen", "area": 28324475.136948049 }, "geometry": { "type": "Point", "coordinates": [ 12.117258321992209, 51.097990872409284 ] } },
{ "type": "Feature", "id": 380, "properties": { "plz": "06729", "name": "Troeglitz", "area": 28857383.567814946 }, "geometry": { "type": "Point", "coordinates": [ 12.224439107786901, 51.068088374573051 ] } },
{ "type": "Feature", "id": 381, "properties": { "plz": "06749", "name": "Bitterfeld", "area": 44110258.008805633 }, "geometry": { "type": "Point", "coordinates": [ 12.358166016376336, 51.623741767131961 ] } },
{ "type": "Feature", "id": 382, "properties": { "plz": "06766", "name": "Wolfen", "area": 36267990.876738548 }, "geometry": { "type": "Point", "coordinates": [ 12.242772905450993, 51.669306783408437 ] } },
{ "type": "Feature", "id": 383, "properties": { "plz": "06773", "name": "Graefenhainichen", "area": 195696685.74452949 }, "geometry": { "type": "Point", "coordinates": [ 12.51147388560908, 51.739710930707659 ] } },
{ "type": "Feature", "id": 384, "properties": { "plz": "06774", "name": "Pouch", "area": 123398410.96100879 }, "geometry": { "type": "Point", "coordinates": [ 12.526852569029463, 51.642661971478184 ] } },
{ "type": "Feature", "id": 385, "properties": { "plz": "06779", "name": "Dessau", "area": 95360216.237719685 }, "geometry": { "type": "Point", "coordinates": [ 12.252271815079501, 51.730903743817777 ] } },
{ "type": "Feature", "id": 386, "properties": { "plz": "06780", "name": "Zoerbig", "area": 91192352.543695986 }, "geometry": { "type": "Point", "coordinates": [ 12.12768851845407, 51.62538248460833 ] } },
{ "type": "Feature", "id": 387, "properties": { "plz": "06785", "name": "Oranienbaum", "area": 63025464.784234047 }, "geometry": { "type": "Point", "coordinates": [ 12.427440395618966, 51.800377893448143 ] } },
{ "type": "Feature", "id": 388, "properties": { "plz": "06786", "name": "Vockerode", "area": 75082747.463227749 }, "geometry": { "type": "Point", "coordinates": [ 12.422545846098728, 51.845762487592026 ] } },
{ "type": "Feature", "id": 389, "properties": { "plz": "06791", "name": "Zschornewitz", "area": 39831524.535025835 }, "geometry": { "type": "Point", "coordinates": [ 12.380468199588783, 51.729115205398017 ] } },
{ "type": "Feature", "id": 390, "properties": { "plz": "06792", "name": "Sandersdorf", "area": 8574443.2723923922 }, "geometry": { "type": "Point", "coordinates": [ 12.260407165821237, 51.632926911811794 ] } },
{ "type": "Feature", "id": 391, "properties": { "plz": "06794", "name": "Zscherndorf", "area": 27436740.568504333 }, "geometry": { "type": "Point", "coordinates": [ 12.225582229468108, 51.604599117903746 ] } },
{ "type": "Feature", "id": 392, "properties": { "plz": "06796", "name": "Brehna", "area": 21358894.753747463 }, "geometry": { "type": "Point", "coordinates": [ 12.206853978490637, 51.561597773548051 ] } },
{ "type": "Feature", "id": 393, "properties": { "plz": "06800", "name": "Jessnitz", "area": 20975250.748904228 }, "geometry": { "type": "Point", "coordinates": [ 12.327581436336944, 51.684872775027202 ] } },
{ "type": "Feature", "id": 394, "properties": { "plz": "06803", "name": "Greppin", "area": 8036218.1992740631 }, "geometry": { "type": "Point", "coordinates": [ 12.297914851232655, 51.651774521479602 ] } },
{ "type": "Feature", "id": 395, "properties": { "plz": "06804", "name": "Muldenstein", "area": 17532536.902182579 }, "geometry": { "type": "Point", "coordinates": [ 12.39507236734908, 51.675859341654082 ] } },
{ "type": "Feature", "id": 396, "properties": { "plz": "06808", "name": "Holzweissig", "area": 12602980.434994698 }, "geometry": { "type": "Point", "coordinates": [ 12.337949409915529, 51.598800867241337 ] } },
{ "type": "Feature", "id": 397, "properties": { "plz": "06809", "name": "Roitzsch", "area": 22399528.131482124 }, "geometry": { "type": "Point", "coordinates": [ 12.278624751493275, 51.581190890616568 ] } },
{ "type": "Feature", "id": 398, "properties": { "plz": "06842", "name": "Dessau", "area": 33859861.104332924 }, "geometry": { "type": "Point", "coordinates": [ 12.303011476583057, 51.794729672458004 ] } },
{ "type": "Feature", "id": 399, "properties": { "plz": "06844", "name": "Dessau", "area": 25035580.515901089 }, "geometry": { "type": "Point", "coordinates": [ 12.272719333085556, 51.852756783684484 ] } },
{ "type": "Feature", "id": 400, "properties": { "plz": "06846", "name": "Dessau", "area": 33829944.766804934 }, "geometry": { "type": "Point", "coordinates": [ 12.18383565023643, 51.848800036317307 ] } },
{ "type": "Feature", "id": 401, "properties": { "plz": "06847", "name": "Dessau", "area": 44315326.970618367 }, "geometry": { "type": "Point", "coordinates": [ 12.192270128895498, 51.798444832225023 ] } },
{ "type": "Feature", "id": 402, "properties": { "plz": "06849", "name": "Dessau", "area": 7337697.7259190977 }, "geometry": { "type": "Point", "coordinates": [ 12.259907648279297, 51.799949753014921 ] } },
{ "type": "Feature", "id": 403, "properties": { "plz": "06862", "name": "Rosslau\/ Elbe", "area": 199275507.81339729 }, "geometry": { "type": "Point", "coordinates": [ 12.313357516689516, 51.95356151265073 ] } },
{ "type": "Feature", "id": 404, "properties": { "plz": "06869", "name": "Coswig\/ Anhalt", "area": 208592454.14533114 }, "geometry": { "type": "Point", "coordinates": [ 12.458862513680735, 51.925895011342213 ] } },
{ "type": "Feature", "id": 405, "properties": { "plz": "06886", "name": "Wittenberg", "area": 123027588.73696184 }, "geometry": { "type": "Point", "coordinates": [ 12.619857072103496, 51.870008693640123 ] } },
{ "type": "Feature", "id": 406, "properties": { "plz": "06888", "name": "Wittenberg", "area": 75536727.787630498 }, "geometry": { "type": "Point", "coordinates": [ 12.73289474015111, 51.869168280912845 ] } },
{ "type": "Feature", "id": 407, "properties": { "plz": "06895", "name": "Zahna", "area": 134104865.23915845 }, "geometry": { "type": "Point", "coordinates": [ 12.763754106758309, 51.938889426598323 ] } },
{ "type": "Feature", "id": 408, "properties": { "plz": "06896", "name": "Wittenberg", "area": 34522530.593981385 }, "geometry": { "type": "Point", "coordinates": [ 12.62694823395999, 51.952077401183622 ] } },
{ "type": "Feature", "id": 409, "properties": { "plz": "06901", "name": "Kemberg", "area": 108170289.06518239 }, "geometry": { "type": "Point", "coordinates": [ 12.69260697033579, 51.773397280699669 ] } },
{ "type": "Feature", "id": 410, "properties": { "plz": "06905", "name": "Bad Schmiedeberg", "area": 80748775.767992496 }, "geometry": { "type": "Point", "coordinates": [ 12.712747002495679, 51.694232443456485 ] } },
{ "type": "Feature", "id": 411, "properties": { "plz": "06909", "name": "Pretzsch\/ Elbe", "area": 55615063.956631184 }, "geometry": { "type": "Point", "coordinates": [ 12.78231496257983, 51.730302600114697 ] } },
{ "type": "Feature", "id": 412, "properties": { "plz": "06917", "name": "Jessen\/ Elster", "area": 257711004.1480186 }, "geometry": { "type": "Point", "coordinates": [ 12.960081230629358, 51.807736647794172 ] } },
{ "type": "Feature", "id": 413, "properties": { "plz": "06918", "name": "Elster\/ Elbe", "area": 98786730.945633829 }, "geometry": { "type": "Point", "coordinates": [ 12.887543810371277, 51.876083250106255 ] } },
{ "type": "Feature", "id": 414, "properties": { "plz": "06922", "name": "Prettin", "area": 82148419.31850338 }, "geometry": { "type": "Point", "coordinates": [ 12.921675543162344, 51.693998745933712 ] } },
{ "type": "Feature", "id": 415, "properties": { "plz": "06925", "name": "Annaburg", "area": 140145668.59128165 }, "geometry": { "type": "Point", "coordinates": [ 13.067609343672968, 51.712886463110216 ] } },
{ "type": "Feature", "id": 416, "properties": { "plz": "06926", "name": "Holzdorf", "area": 41075451.32286036 }, "geometry": { "type": "Point", "coordinates": [ 13.127656929934622, 51.793628664874205 ] } },
{ "type": "Feature", "id": 417, "properties": { "plz": "06928", "name": "Jessen\/ Elster", "area": 11266257.794004917 }, "geometry": { "type": "Point", "coordinates": [ 13.118673972218067, 51.865497399434609 ] } },
{ "type": "Feature", "id": 418, "properties": { "plz": "07318", "name": "Saalfeld\/ Saale", "area": 96028840.498300314 }, "geometry": { "type": "Point", "coordinates": [ 11.329989801677339, 50.626012351548887 ] } },
{ "type": "Feature", "id": 419, "properties": { "plz": "07330", "name": "Probstzella", "area": 71282973.757573128 }, "geometry": { "type": "Point", "coordinates": [ 11.382828079188851, 50.550973362942472 ] } },
{ "type": "Feature", "id": 420, "properties": { "plz": "07333", "name": "Unterwellenborn", "area": 31190294.882373989 }, "geometry": { "type": "Point", "coordinates": [ 11.428953062253976, 50.681687455996219 ] } },
{ "type": "Feature", "id": 421, "properties": { "plz": "07334", "name": "Kamsdorf", "area": 18399486.766214848 }, "geometry": { "type": "Point", "coordinates": [ 11.471141640459496, 50.63628167794905 ] } },
{ "type": "Feature", "id": 422, "properties": { "plz": "07336", "name": "Koenitz", "area": 9148408.7215722203 }, "geometry": { "type": "Point", "coordinates": [ 11.487976392733147, 50.662616553516159 ] } },
{ "type": "Feature", "id": 423, "properties": { "plz": "07338", "name": "Kaulsdorf", "area": 117330647.21601462 }, "geometry": { "type": "Point", "coordinates": [ 11.491137564747715, 50.584807381486748 ] } },
{ "type": "Feature", "id": 424, "properties": { "plz": "07343", "name": "Wurzbach", "area": 67905697.766487688 }, "geometry": { "type": "Point", "coordinates": [ 11.520109085419639, 50.447425367924268 ] } },
{ "type": "Feature", "id": 425, "properties": { "plz": "07349", "name": "Lehesten", "area": 36037314.299593061 }, "geometry": { "type": "Point", "coordinates": [ 11.456117146286354, 50.470389124572328 ] } },
{ "type": "Feature", "id": 426, "properties": { "plz": "07356", "name": "Lobenstein. Moorbad", "area": 127572081.72403443 }, "geometry": { "type": "Point", "coordinates": [ 11.595602909390493, 50.485819423250284 ] } },
{ "type": "Feature", "id": 427, "properties": { "plz": "07366", "name": "Lobenstein. Moorbad", "area": 43076269.305994034 }, "geometry": { "type": "Point", "coordinates": [ 11.675283114618731, 50.415687528479815 ] } },
{ "type": "Feature", "id": 428, "properties": { "plz": "07368", "name": "Ebersdorf\/Thueringen", "area": 78851294.916488647 }, "geometry": { "type": "Point", "coordinates": [ 11.659204497656875, 50.523428587048954 ] } },
{ "type": "Feature", "id": 429, "properties": { "plz": "07381", "name": "Poessneck", "area": 127573317.39227664 }, "geometry": { "type": "Point", "coordinates": [ 11.600082914605911, 50.705371037291094 ] } },
{ "type": "Feature", "id": 430, "properties": { "plz": "07387", "name": "Kroelpa", "area": 19462883.410318136 }, "geometry": { "type": "Point", "coordinates": [ 11.5193999637538, 50.671788068669827 ] } },
{ "type": "Feature", "id": 431, "properties": { "plz": "07389", "name": "Ranis", "area": 84851955.752455235 }, "geometry": { "type": "Point", "coordinates": [ 11.57016360717115, 50.639020622746983 ] } },
{ "type": "Feature", "id": 432, "properties": { "plz": "07407", "name": "Rudolstadt", "area": 262442293.55617738 }, "geometry": { "type": "Point", "coordinates": [ 11.347814731901831, 50.755499982886704 ] } },
{ "type": "Feature", "id": 433, "properties": { "plz": "07422", "name": "Bad Blankenburg", "area": 111062078.85649824 }, "geometry": { "type": "Point", "coordinates": [ 11.210458923374812, 50.684390059633323 ] } },
{ "type": "Feature", "id": 434, "properties": { "plz": "07426", "name": "Koenigsee", "area": 65752403.418994904 }, "geometry": { "type": "Point", "coordinates": [ 11.109517960567771, 50.656151906329683 ] } },
{ "type": "Feature", "id": 435, "properties": { "plz": "07427", "name": "Schwarzburg", "area": 12431793.555089951 }, "geometry": { "type": "Point", "coordinates": [ 11.198096750761232, 50.650371249042067 ] } },
{ "type": "Feature", "id": 436, "properties": { "plz": "07429", "name": "Sitzendorf", "area": 13434472.226691246 }, "geometry": { "type": "Point", "coordinates": [ 11.205639374671877, 50.61705074775 ] } },
{ "type": "Feature", "id": 437, "properties": { "plz": "07545", "name": "Gera", "area": 2998064.121473074 }, "geometry": { "type": "Point", "coordinates": [ 12.08653983253601, 50.878752185395157 ] } },
{ "type": "Feature", "id": 438, "properties": { "plz": "07546", "name": "Gera", "area": 7275335.9586319923 }, "geometry": { "type": "Point", "coordinates": [ 12.09484369327914, 50.889860953509377 ] } },
{ "type": "Feature", "id": 439, "properties": { "plz": "07548", "name": "Gera", "area": 29800007.16857028 }, "geometry": { "type": "Point", "coordinates": [ 12.042723770226367, 50.876942447059037 ] } },
{ "type": "Feature", "id": 440, "properties": { "plz": "07549", "name": "Gera", "area": 7408301.3136665821 }, "geometry": { "type": "Point", "coordinates": [ 12.062037361714488, 50.841677251398863 ] } },
{ "type": "Feature", "id": 441, "properties": { "plz": "07551", "name": "Gera", "area": 21419650.029366493 }, "geometry": { "type": "Point", "coordinates": [ 12.109963951717388, 50.836300986642108 ] } },
{ "type": "Feature", "id": 442, "properties": { "plz": "07552", "name": "Gera", "area": 12392174.730012774 }, "geometry": { "type": "Point", "coordinates": [ 12.064677961790039, 50.918343855794483 ] } },
{ "type": "Feature", "id": 443, "properties": { "plz": "07554", "name": "Gera", "area": 106949192.58105183 }, "geometry": { "type": "Point", "coordinates": [ 12.130166604868402, 50.922590384888899 ] } },
{ "type": "Feature", "id": 444, "properties": { "plz": "07557", "name": "Gera", "area": 33161023.004588604 }, "geometry": { "type": "Point", "coordinates": [ 12.014099652644136, 50.822177182421804 ] } },
{ "type": "Feature", "id": 445, "properties": { "plz": "07558", "name": "Toeppeln", "area": 4147986.3901970983 }, "geometry": { "type": "Point", "coordinates": [ 12.010325613195391, 50.897782806549777 ] } },
{ "type": "Feature", "id": 446, "properties": { "plz": "07570", "name": "Weida", "area": 120166231.55358338 }, "geometry": { "type": "Point", "coordinates": [ 12.027247800655283, 50.77137547193626 ] } },
{ "type": "Feature", "id": 447, "properties": { "plz": "07580", "name": "Ronneburg", "area": 96839774.850407243 }, "geometry": { "type": "Point", "coordinates": [ 12.210380510952822, 50.837027209273245 ] } },
{ "type": "Feature", "id": 448, "properties": { "plz": "07586", "name": "Bad Koestritz", "area": 60170504.700527012 }, "geometry": { "type": "Point", "coordinates": [ 11.967339966108995, 50.905417083718035 ] } },
{ "type": "Feature", "id": 449, "properties": { "plz": "07589", "name": "Muenchenbernsdorf", "area": 43218860.629004955 }, "geometry": { "type": "Point", "coordinates": [ 11.937917333827551, 50.834064544993929 ] } },
{ "type": "Feature", "id": 450, "properties": { "plz": "07607", "name": "Eisenberg", "area": 31214246.212948203 }, "geometry": { "type": "Point", "coordinates": [ 11.882748745993696, 50.965530908759575 ] } },
{ "type": "Feature", "id": 451, "properties": { "plz": "07613", "name": "Krossen\/ Elster", "area": 70696138.030721307 }, "geometry": { "type": "Point", "coordinates": [ 11.941361483853978, 50.98928748003663 ] } },
{ "type": "Feature", "id": 452, "properties": { "plz": "07616", "name": "Buergel", "area": 62950382.171783447 }, "geometry": { "type": "Point", "coordinates": [ 11.779980046437878, 50.95664708314073 ] } },
{ "type": "Feature", "id": 453, "properties": { "plz": "07619", "name": "Schkoelen", "area": 54937258.418569684 }, "geometry": { "type": "Point", "coordinates": [ 11.81646300970845, 51.023155967360431 ] } },
{ "type": "Feature", "id": 454, "properties": { "plz": "07629", "name": "Hermsdorf", "area": 24466563.37741828 }, "geometry": { "type": "Point", "coordinates": [ 11.863397696890653, 50.876250292993561 ] } },
{ "type": "Feature", "id": 455, "properties": { "plz": "07639", "name": "Bad Klosterlausnitz", "area": 38205114.13670826 }, "geometry": { "type": "Point", "coordinates": [ 11.8798297986965, 50.920584163842783 ] } },
{ "type": "Feature", "id": 456, "properties": { "plz": "07646", "name": "Stadtroda", "area": 224996589.3098464 }, "geometry": { "type": "Point", "coordinates": [ 11.754635046481278, 50.846536131747811 ] } },
{ "type": "Feature", "id": 457, "properties": { "plz": "07743", "name": "Jena", "area": 13769241.391242266 }, "geometry": { "type": "Point", "coordinates": [ 11.597239337441069, 50.952660868510314 ] } },
{ "type": "Feature", "id": 458, "properties": { "plz": "07745", "name": "Jena", "area": 25536702.353079319 }, "geometry": { "type": "Point", "coordinates": [ 11.561894421131921, 50.909688976541979 ] } },
{ "type": "Feature", "id": 459, "properties": { "plz": "07747", "name": "Jena", "area": 5313200.8028330207 }, "geometry": { "type": "Point", "coordinates": [ 11.613054458636, 50.890539868146448 ] } },
{ "type": "Feature", "id": 460, "properties": { "plz": "07749", "name": "Jena", "area": 14923697.377842426 }, "geometry": { "type": "Point", "coordinates": [ 11.615731634246586, 50.924206369519027 ] } },
{ "type": "Feature", "id": 461, "properties": { "plz": "07751", "name": "Jena", "area": 137416827.81640691 }, "geometry": { "type": "Point", "coordinates": [ 11.587972574948381, 50.890671935977615 ] } },
{ "type": "Feature", "id": 462, "properties": { "plz": "07768", "name": "Kahla", "area": 119045718.53589773 }, "geometry": { "type": "Point", "coordinates": [ 11.552202662987385, 50.800845614496758 ] } },
{ "type": "Feature", "id": 463, "properties": { "plz": "07774", "name": "Camburg", "area": 39365387.581436872 }, "geometry": { "type": "Point", "coordinates": [ 11.722351632112666, 51.040766581782641 ] } },
{ "type": "Feature", "id": 464, "properties": { "plz": "07778", "name": "Dorndorf-Steudnitz", "area": 62522383.339786053 }, "geometry": { "type": "Point", "coordinates": [ 11.654995662637397, 50.995501546043606 ] } },
{ "type": "Feature", "id": 465, "properties": { "plz": "07806", "name": "Neustadt\/ Orla", "area": 79206602.215919495 }, "geometry": { "type": "Point", "coordinates": [ 11.73533814511338, 50.725861441816853 ] } },
{ "type": "Feature", "id": 466, "properties": { "plz": "07819", "name": "Triptis", "area": 106743898.50314903 }, "geometry": { "type": "Point", "coordinates": [ 11.833215780015276, 50.738545302069433 ] } },
{ "type": "Feature", "id": 467, "properties": { "plz": "07907", "name": "Schleiz", "area": 180169418.49000192 }, "geometry": { "type": "Point", "coordinates": [ 11.813972729292271, 50.593211610265442 ] } },
{ "type": "Feature", "id": 468, "properties": { "plz": "07919", "name": "Schleiz", "area": 38122179.989257097 }, "geometry": { "type": "Point", "coordinates": [ 11.913299637380963, 50.537708347744321 ] } },
{ "type": "Feature", "id": 469, "properties": { "plz": "07922", "name": "Tanna", "area": 80479611.390653014 }, "geometry": { "type": "Point", "coordinates": [ 11.861563632107833, 50.489467994850138 ] } },
{ "type": "Feature", "id": 470, "properties": { "plz": "07924", "name": "Ziegenrueck", "area": 50184897.910692215 }, "geometry": { "type": "Point", "coordinates": [ 11.71343685940419, 50.60572265565574 ] } },
{ "type": "Feature", "id": 471, "properties": { "plz": "07926", "name": "Gefell", "area": 48273627.692506552 }, "geometry": { "type": "Point", "coordinates": [ 11.824349872519317, 50.444732183019369 ] } },
{ "type": "Feature", "id": 472, "properties": { "plz": "07927", "name": "Hirschberg", "area": 19836393.208010674 }, "geometry": { "type": "Point", "coordinates": [ 11.809402909879749, 50.420720062833524 ] } },
{ "type": "Feature", "id": 473, "properties": { "plz": "07929", "name": "Saalburg", "area": 31414182.744891167 }, "geometry": { "type": "Point", "coordinates": [ 11.750602722770365, 50.505008055938568 ] } },
{ "type": "Feature", "id": 474, "properties": { "plz": "07937", "name": "Zeulenroda", "area": 97744167.455097437 }, "geometry": { "type": "Point", "coordinates": [ 11.985406643574583, 50.636476327823125 ] } },
{ "type": "Feature", "id": 475, "properties": { "plz": "07950", "name": "Triebes", "area": 50622311.324253321 }, "geometry": { "type": "Point", "coordinates": [ 12.001624597976768, 50.698079573426327 ] } },
{ "type": "Feature", "id": 476, "properties": { "plz": "07952", "name": "Pausa\/Vogtl.", "area": 57850671.140497446 }, "geometry": { "type": "Point", "coordinates": [ 12.013346239975268, 50.584684428134111 ] } },
{ "type": "Feature", "id": 477, "properties": { "plz": "07955", "name": "Auma", "area": 39250019.574720621 }, "geometry": { "type": "Point", "coordinates": [ 11.90518616794559, 50.702692760550782 ] } },
{ "type": "Feature", "id": 478, "properties": { "plz": "07957", "name": "Langenwetzendorf", "area": 39528727.401500762 }, "geometry": { "type": "Point", "coordinates": [ 12.104465428290913, 50.674367698664327 ] } },